$GPGGA,044445.60,5034.8827,N,03635.7871,E,0,,100.000,0.000,M,,M,0,*4C
$GNGSA,A,1,,,,,,,,,,,,,,,,,,,,,100.000,100.000,100.000*2F
$GPGSA,A,1,,,,,,,,,,,,,,,,,,,,,100.000,100.000,100.000*31
$GLGSA,A,1,,,,,,,,,,,,,,,,,,,,,100.000,100.000,100.000*2D
$BDGSA,A,1,,,,,,,,,,,,,,,,,,,,,100.000,100.000,100.000*20
$QZGSA,A,1,,,,,,,,,,,,,,,,,,,,,100.000,100.000,100.000*2D
$GPGSV,5,1,20,1,72,270,,3,41,278,,4,10,219,,8,6,202,*44
$GPGSV,5,2,20,10,4,90,,12,5,,,17,23,312,,19,9,332,*42
$GPGSV,5,3,20,21,66,190,,22,66,286,,31,31,119,,32,40,57,*44
$GLGSV,5,4,20,68,33,51,,69,77,333,,70,24,250,,77,14,18,*6A
$GLGSV,5,5,20,78,18,73,,83,9,169,,84,61,209,,85,39,320,*6F
$GPRMC,044445.60,V,5034.8827,N,03635.7871,E,0.000,0.000,111221,,E,N*0D
$GPGGA,044446.61,5034.8827,N,03635.7871,E,0,,100.000,0.000,M,,M,0,*4E
$GNGSA,A,1,,,,,,,,,,,,,,,,,,,,,100.000,100.000,100.000*2F
$GPGSA,A,1,,,,,,,,,,,,,,,,,,,,,100.000,100.000,100.000*31
$GLGSA,A,1,,,,,,,,,,,,,,,,,,,,,100.000,100.000,100.000*2D
$BDGSA,A,1,,,,,,,,,,,,,,,,,,,,,100.000,100.000,100.000*20
$QZGSA,A,1,,,,,,,,,,,,,,,,,,,,,100.000,100.000,100.000*2D
$GPGSV,6,1,21,1,72,270,,3,41,278,,4,10,219,,8,6,202,*46
$GPGSV,6,2,21,10,4,90,,12,5,,,17,23,312,,19,9,332,*40
$GPGSV,6,3,21,21,66,190,,22,66,286,,31,31,119,,32,40,57,*46
$GLGSV,6,4,21,68,33,51,,69,77,333,,70,24,250,,77,14,18,*68
$GLGSV,6,5,21,78,18,73,,83,9,169,,84,61,209,,85,39,320,*6D
$BDGSV,6,6,21,206,48,63,*56
$GPRMC,044446.61,V,5034.8827,N,03635.7871,E,0.000,0.000,111221,,E,N*0F
$GPGGA,044447.60,5034.8827,N,03635.7871,E,0,,100.000,0.000,M,,M,0,*4E
$GNGSA,A,1,,,,,,,,,,,,,,,,,,,,,100.000,100.000,100.000*2F
$GPGSA,A,1,,,,,,,,,,,,,,,,,,,,,100.000,100.000,100.000*31
$GLGSA,A,1,,,,,,,,,,,,,,,,,,,,,100.000,100.000,100.000*2D
$BDGSA,A,1,,,,,,,,,,,,,,,,,,,,,100.000,100.000,100.000*20
$QZGSA,A,1,,,,,,,,,,,,,,,,,,,,,100.000,100.000,100.000*2D
$GPGSV,6,1,21,1,72,270,,3,41,278,,4,10,219,,8,6,202,*46
$GPGSV,6,2,21,10,4,90,,12,5,,,17,23,312,,19,9,332,*40
$GPGSV,6,3,21,21,66,190,,22,66,286,,31,31,119,,32,40,57,*46
$GLGSV,6,4,21,68,33,51,,69,77,333,,70,24,250,,77,14,18,*68
$GLGSV,6,5,21,78,18,73,,83,9,169,,84,61,209,,85,39,320,*6D
$BDGSV,6,6,21,206,48,63,*56
$GPRMC,044447.60,V,5034.8827,N,03635.7871,E,0.000,0.000,111221,,E,N*0F
$GPGGA,044448.61,5034.8827,N,03635.7871,E,0,,100.000,0.000,M,,M,0,*40
$GNGSA,A,1,,,,,,,,,,,,,,,,,,,,,100.000,100.000,100.000*2F
$GPGSA,A,1,,,,,,,,,,,,,,,,,,,,,100.000,100.000,100.000*31
$GLGSA,A,1,,,,,,,,,,,,,,,,,,,,,100.000,100.000,100.000*2D
$BDGSA,A,1,,,,,,,,,,,,,,,,,,,,,100.000,100.000,100.000*20
$QZGSA,A,1,,,,,,,,,,,,,,,,,,,,,100.000,100.000,100.000*2D
$GPGSV,6,1,21,1,72,270,,3,41,278,,4,10,219,,8,6,202,*46
$GPGSV,6,2,21,10,4,90,,12,5,,,17,23,312,,19,9,332,*40
$GPGSV,6,3,21,21,66,190,,22,66,286,,31,31,119,,32,40,57,*46
$GLGSV,6,4,21,68,33,51,,69,77,333,,70,24,250,,77,14,18,*68
$GLGSV,6,5,21,78,18,73,,83,9,169,,84,61,209,,85,39,320,*6D
$BDGSV,6,6,21,206,48,63,*56
$GPRMC,044448.61,V,5034.8827,N,03635.7871,E,0.000,0.000,111221,,E,N*01
$GPGGA,044449.60,5034.8827,N,03635.7871,E,0,,100.000,0.000,M,,M,0,*40
$GNGSA,A,1,,,,,,,,,,,,,,,,,,,,,100.000,100.000,100.000*2F
$GPGSA,A,1,,,,,,,,,,,,,,,,,,,,,100.000,100.000,100.000*31
$GLGSA,A,1,,,,,,,,,,,,,,,,,,,,,100.000,100.000,100.000*2D
$BDGSA,A,1,,,,,,,,,,,,,,,,,,,,,100.000,100.000,100.000*20
$QZGSA,A,1,,,,,,,,,,,,,,,,,,,,,100.000,100.000,100.000*2D
$GPGSV,6,1,21,1,72,270,,3,41,278,,4,10,219,,8,6,202,*46
$GPGSV,6,2,21,10,4,90,,12,5,,,17,23,312,,19,9,332,*40
$GPGSV,6,3,21,21,66,190,,22,66,286,,31,31,119,,32,40,57,*46
$GLGSV,6,4,21,68,33,51,,69,77,333,,70,24,250,,77,14,18,*68
$GLGSV,6,5,21,78,18,73,,83,9,169,,84,61,209,,85,39,320,*6D
$BDGSV,6,6,21,206,48,63,*56
$GPRMC,044449.60,V,5034.8827,N,03635.7871,E,0.000,0.000,111221,,E,N*01
$GPGGA,044450.61,5034.8827,N,03635.7871,E,0,,100.000,0.000,M,,M,0,*49
$GNGSA,A,1,,,,,,,,,,,,,,,,,,,,,100.000,100.000,100.000*2F
$GPGSA,A,1,,,,,,,,,,,,,,,,,,,,,100.000,100.000,100.000*31
$GLGSA,A,1,,,,,,,,,,,,,,,,,,,,,100.000,100.000,100.000*2D
$BDGSA,A,1,,,,,,,,,,,,,,,,,,,,,100.000,100.000,100.000*20
$QZGSA,A,1,,,,,,,,,,,,,,,,,,,,,100.000,100.000,100.000*2D
$GPGSV,7,1,27,1,72,269,,3,41,278,,4,10,219,,8,6,202,*49
$GPGSV,7,2,27,10,4,90,,12,5,,,17,23,312,,19,9,332,*47
$GPGSV,7,3,27,21,66,190,,22,66,286,,31,31,119,,32,40,57,34*46
$GLGSV,7,4,27,68,33,51,,69,77,334,,70,24,250,,77,14,18,*68
$GLGSV,7,5,27,78,18,73,,83,9,169,,84,61,209,,85,39,320,*6A
$BDGSV,7,6,27,201,25,167,,202,5,,,203,39,237,,204,19,298,*6D
$BDGSV,7,7,27,205,5,,,206,48,63,,209,5,,*5C
$GPRMC,044450.61,V,5034.8827,N,03635.7871,E,0.000,0.000,111221,,E,N*08
$GPGGA,044451.61,5034.8827,N,03635.7871,E,0,1,100.000,0.000,M,,M,0,*79
$GNGSA,A,1,32,,,,,,,,,,,,,,,,,,,,100.000,100.000,100.000*2E
$GPGSA,A,1,32,,,,,,,,,,,,,,,,,,,,100.000,100.000,100.000*30
$GLGSA,A,1,,,,,,,,,,,,,,,,,,,,,100.000,100.000,100.000*2D
$BDGSA,A,1,,,,,,,,,,,,,,,,,,,,,100.000,100.000,100.000*20
$QZGSA,A,1,,,,,,,,,,,,,,,,,,,,,100.000,100.000,100.000*2D
$GPGSV,7,1,27,1,72,269,,3,41,278,,4,10,219,,8,6,202,*49
$GPGSV,7,2,27,10,4,90,,12,5,,,17,23,312,,19,9,332,*47
$GPGSV,7,3,27,21,66,190,22,22,66,286,,31,31,119,,32,40,57,34*46
$GLGSV,7,4,27,68,33,51,,69,77,334,,70,24,250,,77,14,18,*68
$GLGSV,7,5,27,78,18,73,,83,9,169,,84,61,209,,85,39,320,*6A
$BDGSV,7,6,27,201,25,167,,202,5,,,203,39,237,,204,19,298,*6D
$BDGSV,7,7,27,205,5,,,206,48,63,,209,5,,*5C
$GPRMC,044451.61,V,5034.8827,N,03635.7871,E,0.000,0.000,111221,,E,N*09
$GPGGA,044452.60,5034.8827,N,03635.7871,E,0,2,100.000,0.000,M,,M,0,*78
$GNGSA,A,1,21,32,,,,,,,,,,,,,,,,,,,100.000,100.000,100.000*2D
$GPGSA,A,1,21,32,,,,,,,,,,,,,,,,,,,100.000,100.000,100.000*33
$GLGSA,A,1,,,,,,,,,,,,,,,,,,,,,100.000,100.000,100.000*2D
$BDGSA,A,1,,,,,,,,,,,,,,,,,,,,,100.000,100.000,100.000*20
$QZGSA,A,1,,,,,,,,,,,,,,,,,,,,,100.000,100.000,100.000*2D
$GPGSV,7,1,27,1,72,269,,3,41,278,,4,10,219,,8,6,202,*49
$GPGSV,7,2,27,10,4,90,,12,5,,,17,23,312,,19,9,332,*47
$GPGSV,7,3,27,21,66,190,26,22,66,286,,31,31,119,,32,40,57,36*40
$GLGSV,7,4,27,68,33,51,36,69,77,334,,70,24,250,,77,14,18,*6D
$GLGSV,7,5,27,78,18,73,,83,9,169,,84,61,209,,85,39,320,21*69
$BDGSV,7,6,27,201,25,167,,202,5,,,203,39,237,,204,19,298,*6D
$BDGSV,7,7,27,205,5,,,206,48,63,14,209,5,,*59
$GPRMC,044452.60,V,5034.8827,N,03635.7871,E,0.000,0.000,111221,,E,N*0B
$GPGGA,044453.60,5034.8827,N,03635.7871,E,0,3,100.000,0.000,M,,M,0,*78
$GNGSA,A,1,21,32,206,,,,,,,,,,,,,,,,,,100.000,100.000,100.000*19
$GPGSA,A,1,21,32,,,,,,,,,,,,,,,,,,,100.000,100.000,100.000*33
$GLGSA,A,1,,,,,,,,,,,,,,,,,,,,,100.000,100.000,100.000*2D
$BDGSA,A,1,206,,,,,,,,,,,,,,,,,,,,100.000,100.000,100.000*14
$QZGSA,A,1,,,,,,,,,,,,,,,,,,,,,100.000,100.000,100.000*2D
$GPGSV,7,1,27,1,72,269,,3,41,278,22,4,10,219,,8,6,202,*49
$GPGSV,7,2,27,10,4,90,,12,5,,,17,23,312,26,19,9,332,*43
$GPGSV,7,3,27,21,66,190,28,22,66,286,,31,31,119,,32,40,57,38*40
$GLGSV,7,4,27,68,33,51,36,69,77,334,,70,24,250,,77,14,18,*6D
$GLGSV,7,5,27,78,18,73,,83,9,169,,84,61,209,,85,39,320,22*6A
$BDGSV,7,6,27,201,25,167,,202,5,,,203,39,237,,204,19,298,*6D
$BDGSV,7,7,27,205,5,,,206,48,63,19,209,5,,*54
$GPRMC,044453.60,V,5034.8827,N,03635.7871,E,0.000,0.000,111221,,E,N*0A
$GPGGA,044449.52,5036.5366,N,03636.6120,E,1,7,3.567,181.378,M,,M,0,*7B
$GNGSA,A,3,3,17,21,32,206,68,85,,,,,,,,,,,,,,8.071,3.567,7.240*24
$GPGSA,A,3,3,17,21,32,,,,,,,,,,,,,,,,,8.071,3.567,7.240*0D
$GLGSA,A,3,68,85,,,,,,,,,,,,,,,,,,,8.071,3.567,7.240*25
$BDGSA,A,3,206,,,,,,,,,,,,,,,,,,,,8.071,3.567,7.240*1F
$QZGSA,A,3,,,,,,,,,,,,,,,,,,,,,8.071,3.567,7.240*26
$GPGSV,7,1,27,1,72,269,29,3,41,278,22,4,10,219,,8,6,202,*42
$GPGSV,7,2,27,10,4,90,,12,5,,,17,23,312,22,19,9,332,*47
$GPGSV,7,3,27,21,66,190,29,22,67,286,20,31,31,119,,32,40,57,37*4D
$GLGSV,7,4,27,68,33,51,32,69,77,334,,70,24,250,,77,14,18,*69
$GLGSV,7,5,27,78,18,73,21,83,9,169,,84,61,209,,85,39,320,23*68
$BDGSV,7,6,27,201,5,,,202,10,114,,203,31,187,,204,5,,*61
$BDGSV,7,7,27,205,32,161,,206,48,63,22,209,52,69,*63
$GPRMC,044449.52,A,5036.5366,N,03636.6120,E,11.709,0.000,111221,,E,A*28
$GPGGA,044450.52,5036.5264,N,03636.6101,E,1,8,2.621,138.333,M,,M,0,*71
$GNGSA,A,3,1,3,17,21,32,206,68,85,,,,,,,,,,,,,5.054,2.621,4.321*1A
$GPGSA,A,3,1,3,17,21,32,,,,,,,,,,,,,,,,5.054,2.621,4.321*33
$GLGSA,A,3,68,85,,,,,,,,,,,,,,,,,,,5.054,2.621,4.321*2A
$BDGSA,A,3,206,,,,,,,,,,,,,,,,,,,,5.054,2.621,4.321*10
$QZGSA,A,3,,,,,,,,,,,,,,,,,,,,,5.054,2.621,4.321*29
$GPGSV,7,1,27,1,72,269,30,3,41,278,21,4,10,219,,8,6,202,*49
$GPGSV,7,2,27,10,4,90,,12,5,,,17,23,312,21,19,9,332,*44
$GPGSV,7,3,27,21,66,190,30,22,67,286,22,31,31,119,,32,40,57,36*46
$GLGSV,7,4,27,68,33,51,32,69,77,334,,70,24,250,,77,14,18,*69
$GLGSV,7,5,27,78,18,73,23,83,9,169,,84,61,209,,85,39,320,21*68
$BDGSV,7,6,27,201,5,,,202,10,114,,203,31,187,,204,5,,*61
$BDGSV,7,7,27,205,32,161,,206,48,63,23,209,52,69,*62
$GPRMC,044450.52,A,5036.5264,N,03636.6101,E,5.882,0.000,111221,,E,A*19
$GPGGA,044451.51,5036.5228,N,03636.6053,E,1,9,1.787,134.988,M,,M,0,*74
$GNGSA,A,3,1,3,17,21,32,206,68,78,85,,,,,,,,,,,,3.150,1.787,2.594*16
$GPGSA,A,3,1,3,17,21,32,,,,,,,,,,,,,,,,3.150,1.787,2.594*30
$GLGSA,A,3,68,78,85,,,,,,,,,,,,,,,,,,3.150,1.787,2.594*26
$BDGSA,A,3,206,,,,,,,,,,,,,,,,,,,,3.150,1.787,2.594*13
$QZGSA,A,3,,,,,,,,,,,,,,,,,,,,,3.150,1.787,2.594*2A
$GPGSV,7,1,27,1,72,269,30,3,41,278,22,4,10,219,,8,6,202,*4A
$GPGSV,7,2,27,10,4,90,,12,5,,,17,23,312,21,19,9,332,*44
$GPGSV,7,3,27,21,66,190,29,22,67,286,23,31,31,119,25,32,40,57,29*46
$GLGSV,7,4,27,68,33,51,25,69,77,334,10,70,24,250,,77,14,18,*6E
$GLGSV,7,5,27,78,18,73,27,83,8,169,,84,61,209,,85,39,320,21*6D
$BDGSV,7,6,27,201,5,,,202,10,114,,203,31,187,,204,5,,*61
$BDGSV,7,7,27,205,32,161,,206,48,63,23,209,52,69,*62
$GPRMC,044451.51,A,5036.5228,N,03636.6053,E,5.913,0.000,111221,,E,A*1C
$GPGGA,044452.51,5036.5178,N,03636.6029,E,1,11,1.569,120.145,M,,M,0,*4B
$GNGSA,A,3,1,3,17,21,31,32,206,68,69,78,85,,,,,,,,,,2.892,1.569,2.430*10
$GPGSA,A,3,1,3,17,21,31,32,,,,,,,,,,,,,,,2.892,1.569,2.430*39
$GLGSA,A,3,68,69,78,85,,,,,,,,,,,,,,,,,2.892,1.569,2.430*22
$BDGSA,A,3,206,,,,,,,,,,,,,,,,,,,,2.892,1.569,2.430*18
$QZGSA,A,3,,,,,,,,,,,,,,,,,,,,,2.892,1.569,2.430*21
$GPGSV,7,1,27,1,72,269,30,3,41,278,22,4,10,219,,8,6,202,*4A
$GPGSV,7,2,27,10,4,90,,12,5,,,17,23,312,25,19,9,332,*40
$GPGSV,7,3,27,21,66,190,29,22,67,286,24,31,31,119,24,32,40,57,29*40
$GLGSV,7,4,27,68,33,51,25,69,77,334,15,70,24,250,,77,14,18,*6B
$GLGSV,7,5,27,78,18,73,28,83,8,169,,84,61,209,,85,39,320,22*61
$BDGSV,7,6,27,201,5,,,202,10,114,,203,31,187,,204,5,,*61
$BDGSV,7,7,27,205,32,161,,206,48,63,20,209,52,69,*61
$GPRMC,044452.51,A,5036.5178,N,03636.6029,E,7.257,0.000,111221,,E,A*1D
$GPGGA,044454.00,5036.5231,N,03636.5975,E,1,12,0.997,137.878,M,,M,0,*4A
$GNGSA,A,3,1,3,17,21,31,32,206,68,69,70,78,85,,,,,,,,,1.774,0.997,1.467*1E
$GPGSA,A,3,1,3,17,21,31,32,,,,,,,,,,,,,,,1.774,0.997,1.467*30
$GLGSA,A,3,68,69,70,78,85,,,,,,,,,,,,,,,,1.774,0.997,1.467*2C
$BDGSA,A,3,206,,,,,,,,,,,,,,,,,,,,1.774,0.997,1.467*11
$QZGSA,A,3,,,,,,,,,,,,,,,,,,,,,1.774,0.997,1.467*28
$GPGSV,7,1,27,1,72,269,31,3,41,278,24,4,10,219,,8,6,202,*4D
$GPGSV,7,2,27,10,4,90,,12,5,,,17,23,312,29,19,9,332,*4C
$GPGSV,7,3,27,21,66,190,27,22,67,286,25,31,31,119,25,32,40,57,35*43
$GLGSV,7,4,27,68,33,51,29,69,77,334,16,70,24,250,16,77,14,18,*63
$GLGSV,7,5,27,78,18,73,20,83,8,169,,84,61,209,,85,39,320,21*6A
$BDGSV,7,6,27,201,5,,,202,10,114,,203,31,187,,204,5,,*61
$BDGSV,7,7,27,205,32,161,,206,48,63,23,209,52,69,*62
$GPRMC,044454.00,A,5036.5231,N,03636.5975,E,7.006,0.000,111221,,E,A*14
$GPGGA,044455.00,5036.5255,N,03636.5955,E,1,11,1.147,140.650,M,,M,0,*48
$GNGSA,A,3,1,3,17,21,31,32,206,68,69,78,85,,,,,,,,,,2.049,1.147,1.698*15
$GPGSA,A,3,1,3,17,21,31,32,,,,,,,,,,,,,,,2.049,1.147,1.698*3C
$GLGSA,A,3,68,69,78,85,,,,,,,,,,,,,,,,,2.049,1.147,1.698*27
$BDGSA,A,3,206,,,,,,,,,,,,,,,,,,,,2.049,1.147,1.698*1D
$QZGSA,A,3,,,,,,,,,,,,,,,,,,,,,2.049,1.147,1.698*24
$GPGSV,7,1,27,1,72,269,30,3,41,278,25,4,10,219,,8,6,201,*4E
$GPGSV,7,2,27,10,4,90,,12,5,,,17,23,312,30,19,9,332,*44
$GPGSV,7,3,27,21,66,190,27,22,67,286,24,31,31,119,28,32,40,57,36*4C
$GLGSV,7,4,27,68,33,51,31,69,77,334,14,70,24,250,16,77,14,18,*68
$GLGSV,7,5,27,78,18,73,18,83,8,169,,84,61,209,,85,39,320,21*61
$BDGSV,7,6,27,201,5,,,202,10,114,,203,31,187,,204,5,,*61
$BDGSV,7,7,27,205,32,161,,206,48,63,26,209,52,69,*67
$GPRMC,044455.00,A,5036.5255,N,03636.5955,E,7.900,273.403,111221,,E,A*1B
$GPGGA,044456.00,5036.5257,N,03636.5922,E,1,11,1.147,139.493,M,,M,0,*4A
$GNGSA,A,3,1,3,17,21,31,32,206,68,69,78,85,,,,,,,,,,2.049,1.147,1.698*15
$GPGSA,A,3,1,3,17,21,31,32,,,,,,,,,,,,,,,2.049,1.147,1.698*3C
$GLGSA,A,3,68,69,78,85,,,,,,,,,,,,,,,,,2.049,1.147,1.698*27
$BDGSA,A,3,206,,,,,,,,,,,,,,,,,,,,2.049,1.147,1.698*1D
$QZGSA,A,3,,,,,,,,,,,,,,,,,,,,,2.049,1.147,1.698*24
$GPGSV,8,1,28,1,72,269,30,3,41,278,24,4,10,219,,8,6,201,*4F
$GPGSV,8,2,28,10,4,90,,12,5,,,17,23,312,22,19,9,332,*47
$GPGSV,8,3,28,21,66,190,24,22,67,286,26,28,5,,,31,31,119,26*7E
$GPGSV,8,4,28,32,40,57,36*7D
$GLGSV,8,5,28,68,33,51,34,69,77,334,14,70,24,250,15,77,14,18,*6F
$GLGSV,8,6,28,78,18,73,18,83,8,169,,84,61,209,,85,39,320,26*65
$BDGSV,8,7,28,201,5,,,202,10,114,,203,31,187,,204,5,,*60
$BDGSV,8,8,28,205,32,161,,206,48,63,27,209,52,69,*69
$GPRMC,044456.00,A,5036.5257,N,03636.5922,E,8.627,270.777,111221,,E,A*1C
$GPGGA,044457.00,5036.5265,N,03636.5886,E,1,12,0.850,140.094,M,,M,0,*45
$GNGSA,A,3,1,3,4,17,21,31,32,206,68,69,78,85,,,,,,,,,1.479,0.850,1.210*2F
$GPGSA,A,3,1,3,4,17,21,31,32,,,,,,,,,,,,,,1.479,0.850,1.210*06
$GLGSA,A,3,68,69,78,85,,,,,,,,,,,,,,,,,1.479,0.850,1.210*29
$BDGSA,A,3,206,,,,,,,,,,,,,,,,,,,,1.479,0.850,1.210*13
$QZGSA,A,3,,,,,,,,,,,,,,,,,,,,,1.479,0.850,1.210*2A
$GPGSV,8,1,28,1,72,269,31,3,41,278,19,4,10,219,10,8,6,201,*41
$GPGSV,8,2,28,10,4,90,23,12,5,,,17,23,312,18,19,9,332,*4F
$GPGSV,8,3,28,21,66,190,24,22,67,286,26,28,5,,,31,31,119,26*7E
$GPGSV,8,4,28,32,40,57,37*7C
$GLGSV,8,5,28,68,33,51,36,69,77,334,15,70,24,250,17,77,14,18,*6E
$GLGSV,8,6,28,78,18,73,17,83,8,169,,84,61,209,,85,39,320,24*68
$BDGSV,8,7,28,201,5,,,202,10,114,,203,31,187,,204,5,,*60
$BDGSV,8,8,28,205,32,161,,206,48,63,28,209,52,69,*66
$GPRMC,044457.00,A,5036.5265,N,03636.5886,E,8.197,268.213,111221,,E,A*11
$GPGGA,044458.00,5036.5273,N,03636.5854,E,1,13,0.834,141.213,M,,M,0,*4D
$GNGSA,A,3,1,3,4,10,17,21,31,32,206,68,69,78,85,,,,,,,,1.351,0.834,1.063*27
$GPGSA,A,3,1,3,4,10,17,21,31,32,,,,,,,,,,,,,1.351,0.834,1.063*0E
$GLGSA,A,3,68,69,78,85,,,,,,,,,,,,,,,,,1.351,0.834,1.063*20
$BDGSA,A,3,206,,,,,,,,,,,,,,,,,,,,1.351,0.834,1.063*1A
$QZGSA,A,3,,,,,,,,,,,,,,,,,,,,,1.351,0.834,1.063*23
$GPGSV,8,1,28,1,72,269,30,3,41,278,20,4,10,219,11,8,6,201,*4B
$GPGSV,8,2,28,10,4,90,21,12,5,,,17,23,312,19,19,9,332,*4C
$GPGSV,8,3,28,21,66,190,26,22,67,286,22,28,5,,,31,31,119,21*7F
$GPGSV,8,4,28,32,40,57,35*7E
$GLGSV,8,5,28,68,33,51,37,69,77,334,15,70,24,250,22,77,14,18,8*51
$GLGSV,8,6,28,78,18,73,16,83,8,169,,84,61,209,,85,39,320,25*68
$BDGSV,8,7,28,201,5,,,202,10,114,,203,31,187,,204,5,,*60
$BDGSV,8,8,28,205,32,161,,206,48,63,28,209,52,69,*66
$GPRMC,044458.00,A,5036.5273,N,03636.5854,E,7.873,275.921,111221,,E,A*1C
$GPGGA,044459.00,5036.5278,N,03636.5822,E,1,13,0.834,142.283,M,,M,0,*4C
$GNGSA,A,3,1,3,4,10,17,21,31,32,206,68,69,78,85,,,,,,,,1.351,0.834,1.063*27
$GPGSA,A,3,1,3,4,10,17,21,31,32,,,,,,,,,,,,,1.351,0.834,1.063*0E
$GLGSA,A,3,68,69,78,85,,,,,,,,,,,,,,,,,1.351,0.834,1.063*20
$BDGSA,A,3,206,,,,,,,,,,,,,,,,,,,,1.351,0.834,1.063*1A
$QZGSA,A,3,,,,,,,,,,,,,,,,,,,,,1.351,0.834,1.063*23
$GPGSV,8,1,28,1,72,269,29,3,41,278,18,4,10,219,10,8,6,201,*49
$GPGSV,8,2,28,10,4,90,19,12,5,,,17,23,312,23,19,9,332,*4E
$GPGSV,8,3,28,21,66,190,28,22,67,286,22,28,5,,,31,31,119,21*71
$GPGSV,8,4,28,32,40,57,34*7F
$GLGSV,8,5,28,68,33,51,37,69,77,334,25,70,25,250,18,77,14,18,17*64
$GLGSV,8,6,28,78,18,73,17,83,8,169,,84,61,209,,85,39,320,19*66
$BDGSV,8,7,28,201,5,,,202,10,114,,203,31,187,,204,5,,*60
$BDGSV,8,8,28,205,32,161,,206,48,63,27,209,52,69,*69
$GPRMC,044459.00,A,5036.5278,N,03636.5822,E,7.998,275.261,111221,,E,A*1C
$GPGGA,044500.00,5036.5281,N,03636.5791,E,1,13,0.834,143.557,M,,M,0,*4F
$GNGSA,A,3,1,3,4,10,17,21,31,32,206,68,69,78,85,,,,,,,,1.351,0.834,1.063*27
$GPGSA,A,3,1,3,4,10,17,21,31,32,,,,,,,,,,,,,1.351,0.834,1.063*0E
$GLGSA,A,3,68,69,78,85,,,,,,,,,,,,,,,,,1.351,0.834,1.063*20
$BDGSA,A,3,206,,,,,,,,,,,,,,,,,,,,1.351,0.834,1.063*1A
$QZGSA,A,3,,,,,,,,,,,,,,,,,,,,,1.351,0.834,1.063*23
$GPGSV,8,1,28,1,72,269,28,3,41,278,23,4,10,219,12,8,6,201,*42
$GPGSV,8,2,28,10,4,90,19,12,5,,,17,23,312,19,19,9,332,*47
$GPGSV,8,3,28,21,66,190,29,22,67,286,20,28,5,,,31,31,119,23*70
$GPGSV,8,4,28,32,40,57,36*7D
$GLGSV,8,5,28,68,33,51,36,69,77,334,24,70,25,250,18,77,14,18,13*60
$GLGSV,8,6,28,78,18,73,22,83,8,169,,84,61,209,,85,39,320,19*60
$BDGSV,8,7,28,201,5,,,202,10,114,,203,31,187,,204,5,,*60
$BDGSV,8,8,28,205,32,161,,206,48,63,28,209,52,69,*66
$GPRMC,044500.00,A,5036.5281,N,03636.5791,E,7.582,273.716,111221,,E,A*14
$GPGGA,044501.00,5036.5279,N,03636.5761,E,1,12,0.850,144.108,M,,M,0,*4C
$GNGSA,A,3,1,3,4,17,21,31,32,206,68,69,78,85,,,,,,,,,1.479,0.850,1.211*2E
$GPGSA,A,3,1,3,4,17,21,31,32,,,,,,,,,,,,,,1.479,0.850,1.211*07
$GLGSA,A,3,68,69,78,85,,,,,,,,,,,,,,,,,1.479,0.850,1.211*28
$BDGSA,A,3,206,,,,,,,,,,,,,,,,,,,,1.479,0.850,1.211*12
$QZGSA,A,3,,,,,,,,,,,,,,,,,,,,,1.479,0.850,1.211*2B
$GPGSV,8,1,29,1,72,269,25,3,41,278,22,4,10,219,13,8,6,201,*4E
$GPGSV,8,2,29,12,5,,,17,23,312,22,19,9,332,,21,66,190,24*47
$GPGSV,8,3,29,22,67,286,20,28,5,,,31,31,119,29,32,40,57,27*49
$GLGSV,8,4,29,68,33,51,28,69,77,334,23,70,25,250,18,77,14,18,9*53
$GLGSV,8,5,29,78,18,73,25,83,8,169,,84,61,209,,85,39,320,25*6A
$BDGSV,8,6,29,201,5,,,202,10,114,,203,31,187,,204,5,,*60
$BDGSV,8,7,29,205,32,161,,206,48,63,29,209,52,69,,216,40,54,*59
$BDGSV,8,8,29,219,32,256,*69
$GPRMC,044501.00,A,5036.5279,N,03636.5761,E,7.203,266.339,111221,,E,A*1E
$GPGGA,044502.00,5036.5279,N,03636.5730,E,1,12,0.850,144.763,M,,M,0,*40
$GNGSA,A,3,1,3,4,17,21,31,32,206,68,69,78,85,,,,,,,,,1.480,0.850,1.211*28
$GPGSA,A,3,1,3,4,17,21,31,32,,,,,,,,,,,,,,1.480,0.850,1.211*01
$GLGSA,A,3,68,69,78,85,,,,,,,,,,,,,,,,,1.480,0.850,1.211*2E
$BDGSA,A,3,206,,,,,,,,,,,,,,,,,,,,1.480,0.850,1.211*14
$QZGSA,A,3,,,,,,,,,,,,,,,,,,,,,1.480,0.850,1.211*2D
$GPGSV,8,1,29,1,72,269,26,3,41,278,20,4,10,219,14,8,6,201,*48
$GPGSV,8,2,29,12,5,,,17,23,312,19,19,9,332,,21,66,190,26*4D
$GPGSV,8,3,29,22,67,286,21,28,5,,,31,31,119,27,32,40,57,24*45
$GLGSV,8,4,29,68,33,51,22,69,77,334,24,70,25,250,17,77,14,18,9*51
$GLGSV,8,5,29,78,18,73,23,83,8,169,,84,61,209,,85,39,320,23*6A
$BDGSV,8,6,29,201,5,,,202,10,114,,203,31,187,,204,5,,*60
$BDGSV,8,7,29,205,32,161,,206,48,63,22,209,52,69,,216,40,54,*52
$BDGSV,8,8,29,219,32,256,*69
$GPRMC,044502.00,A,5036.5279,N,03636.5730,E,7.147,268.721,111221,,E,A*19
$GPGGA,044503.00,5036.5280,N,03636.5699,E,1,12,0.850,145.233,M,,M,0,*44
$GNGSA,A,3,1,3,4,17,21,31,32,206,68,69,78,85,,,,,,,,,1.480,0.850,1.211*28
$GPGSA,A,3,1,3,4,17,21,31,32,,,,,,,,,,,,,,1.480,0.850,1.211*01
$GLGSA,A,3,68,69,78,85,,,,,,,,,,,,,,,,,1.480,0.850,1.211*2E
$BDGSA,A,3,206,,,,,,,,,,,,,,,,,,,,1.480,0.850,1.211*14
$QZGSA,A,3,,,,,,,,,,,,,,,,,,,,,1.480,0.850,1.211*2D
$GPGSV,8,1,29,1,72,269,22,3,41,278,20,4,10,219,14,8,6,201,*4C
$GPGSV,8,2,29,12,5,,,17,23,312,19,19,9,332,,21,66,190,19*41
$GPGSV,8,3,29,22,67,286,19,28,5,,,31,31,119,19,32,40,57,24*43
$GLGSV,8,4,29,68,33,51,19,69,77,334,22,70,25,250,14,77,14,18,8*5D
$GLGSV,8,5,29,78,18,73,16,83,8,169,,84,61,209,,85,39,320,31*6F
$BDGSV,8,6,29,201,5,,,202,10,114,,203,31,187,,204,5,,*60
$BDGSV,8,7,29,205,32,161,,206,48,63,19,209,52,69,,216,40,54,*5A
$BDGSV,8,8,29,219,32,256,*69
$GPRMC,044503.00,A,5036.5280,N,03636.5699,E,7.383,273.108,111221,,E,A*11
$GPGGA,044504.00,5036.5285,N,03636.5664,E,1,11,0.888,145.421,M,,M,0,*47
$GNGSA,A,3,1,3,4,17,21,31,32,206,68,69,85,,,,,,,,,,1.604,0.888,1.335*2B
$GPGSA,A,3,1,3,4,17,21,31,32,,,,,,,,,,,,,,1.604,0.888,1.335*0D
$GLGSA,A,3,68,69,85,,,,,,,,,,,,,,,,,,1.604,0.888,1.335*2D
$BDGSA,A,3,206,,,,,,,,,,,,,,,,,,,,1.604,0.888,1.335*18
$QZGSA,A,3,,,,,,,,,,,,,,,,,,,,,1.604,0.888,1.335*21
$GPGSV,8,1,29,1,72,269,20,3,41,278,18,4,10,219,15,8,6,201,*44
$GPGSV,8,2,29,12,5,,,17,23,312,20,19,9,332,,21,66,190,18*4A
$GPGSV,8,3,29,22,67,286,18,28,5,,,31,31,119,18,32,40,57,19*4D
$GLGSV,8,4,29,68,33,51,18,69,77,334,19,70,25,250,12,77,14,18,10*6B
$GLGSV,8,5,29,78,18,73,21,83,8,169,,84,61,209,,85,39,320,27*6C
$BDGSV,8,6,29,201,5,,,202,10,114,,203,31,187,,204,5,,*60
$BDGSV,8,7,29,205,32,161,,206,48,63,16,209,52,69,,216,40,54,*55
$BDGSV,8,8,29,219,32,256,*69
$GPRMC,044504.00,A,5036.5285,N,03636.5664,E,7.445,275.063,111221,,E,A*16
$GPGGA,044505.00,5036.5296,N,03636.5638,E,1,12,0.850,147.960,M,,M,0,*41
$GNGSA,A,3,1,3,4,17,21,31,32,206,68,69,78,85,,,,,,,,,1.480,0.850,1.211*28
$GPGSA,A,3,1,3,4,17,21,31,32,,,,,,,,,,,,,,1.480,0.850,1.211*01
$GLGSA,A,3,68,69,78,85,,,,,,,,,,,,,,,,,1.480,0.850,1.211*2E
$BDGSA,A,3,206,,,,,,,,,,,,,,,,,,,,1.480,0.850,1.211*14
$QZGSA,A,3,,,,,,,,,,,,,,,,,,,,,1.480,0.850,1.211*2D
$GPGSV,8,1,29,1,72,269,23,3,41,278,16,4,10,219,22,8,6,201,*4D
$GPGSV,8,2,29,12,5,,,17,23,312,25,19,9,332,,21,66,190,19*4E
$GPGSV,8,3,29,22,67,286,17,28,5,,,31,31,119,22,32,40,57,18*4A
$GLGSV,8,4,29,68,33,51,20,69,77,334,20,70,25,250,14,77,14,18,10*6C
$GLGSV,8,5,29,78,18,73,18,83,8,169,,84,61,209,,85,39,320,31*61
$BDGSV,8,6,29,201,5,,,202,10,114,,203,31,187,,204,5,,*60
$BDGSV,8,7,29,205,32,161,,206,48,63,16,209,52,69,,216,40,54,*55
$BDGSV,8,8,29,219,32,256,*69
$GPRMC,044505.00,A,5036.5296,N,03636.5638,E,6.959,280.128,111221,,E,A*19
$GPGGA,044506.00,5036.5298,N,03636.5605,E,1,12,0.850,147.850,M,,M,0,*40
$GNGSA,A,3,1,3,4,17,21,31,32,206,68,69,78,85,,,,,,,,,1.480,0.850,1.211*28
$GPGSA,A,3,1,3,4,17,21,31,32,,,,,,,,,,,,,,1.480,0.850,1.211*01
$GLGSA,A,3,68,69,78,85,,,,,,,,,,,,,,,,,1.480,0.850,1.211*2E
$BDGSA,A,3,206,,,,,,,,,,,,,,,,,,,,1.480,0.850,1.211*14
$QZGSA,A,3,,,,,,,,,,,,,,,,,,,,,1.480,0.850,1.211*2D
$GPGSV,8,1,28,1,72,269,24,3,41,278,18,4,10,219,19,8,6,201,*4D
$GPGSV,8,2,28,17,23,312,24,19,9,332,,21,66,190,25,22,67,286,16*4D
$GPGSV,8,3,28,28,5,,,31,31,119,19,32,40,57,25*76
$GLGSV,8,4,28,68,33,51,20,69,77,335,19,70,25,250,12,77,14,18,10*60
$GLGSV,8,5,28,78,18,73,18,83,8,169,,84,61,209,,85,39,320,26*66
$BDGSV,8,6,28,201,5,,,202,10,114,,203,31,187,,204,5,,*61
$BDGSV,8,7,28,205,32,161,,206,48,63,17,209,52,69,,216,40,54,*55
$BDGSV,8,8,28,219,32,256,*68
$GPRMC,044506.00,A,5036.5298,N,03636.5605,E,6.659,267.878,111221,,E,A*10
$GPGGA,044507.00,5036.5291,N,03636.5575,E,1,12,0.850,147.324,M,,M,0,*44
$GNGSA,A,3,1,3,4,17,21,31,32,206,68,69,78,85,,,,,,,,,1.480,0.850,1.212*2B
$GPGSA,A,3,1,3,4,17,21,31,32,,,,,,,,,,,,,,1.480,0.850,1.212*02
$GLGSA,A,3,68,69,78,85,,,,,,,,,,,,,,,,,1.480,0.850,1.212*2D
$BDGSA,A,3,206,,,,,,,,,,,,,,,,,,,,1.480,0.850,1.212*17
$QZGSA,A,3,,,,,,,,,,,,,,,,,,,,,1.480,0.850,1.212*2E
$GPGSV,8,1,28,1,72,269,26,3,41,278,26,4,10,219,18,8,6,201,*43
$GPGSV,8,2,28,17,23,312,25,19,9,332,,21,66,190,24,22,67,286,16*4D
$GPGSV,8,3,28,28,5,,,31,31,119,27,32,40,57,29*77
$GLGSV,8,4,28,68,33,51,24,69,77,335,19,70,25,250,15,77,14,18,10*63
$GLGSV,8,5,28,78,18,73,16,83,8,169,,84,61,209,,85,39,320,27*69
$BDGSV,8,6,28,201,5,,,202,10,114,,203,31,187,,204,5,,*61
$BDGSV,8,7,28,205,32,161,,206,48,63,22,209,52,69,,216,40,54,*53
$BDGSV,8,8,28,219,32,256,*68
$GPRMC,044507.00,A,5036.5291,N,03636.5575,E,7.071,254.737,111221,,E,A*15
$GPGGA,044508.00,5036.5282,N,03636.5541,E,1,13,0.779,146.497,M,,M,0,*45
$GNGSA,A,3,1,3,4,17,19,21,31,32,206,68,69,78,85,,,,,,,,1.325,0.779,1.072*2B
$GPGSA,A,3,1,3,4,17,19,21,31,32,,,,,,,,,,,,,1.325,0.779,1.072*02
$GLGSA,A,3,68,69,78,85,,,,,,,,,,,,,,,,,1.325,0.779,1.072*25
$BDGSA,A,3,206,,,,,,,,,,,,,,,,,,,,1.325,0.779,1.072*1F
$QZGSA,A,3,,,,,,,,,,,,,,,,,,,,,1.325,0.779,1.072*26
$GPGSV,8,1,28,1,72,269,29,3,41,278,24,4,10,219,18,8,6,201,*4E
$GPGSV,8,2,28,17,23,312,22,19,9,332,10,21,66,190,24,22,67,286,17*4A
$GPGSV,8,3,28,28,5,,,31,31,119,29,32,40,57,27*77
$GLGSV,8,4,28,68,33,51,20,69,77,335,20,70,25,250,16,77,14,18,10*6E
$GLGSV,8,5,28,78,18,73,23,83,8,169,,84,61,209,,85,39,319,33*60
$BDGSV,8,6,28,201,5,,,202,10,114,,203,31,187,,204,5,,*61
$BDGSV,8,7,28,205,32,161,,206,48,63,20,209,52,69,,216,40,54,*51
$BDGSV,8,8,28,219,32,256,*68
$GPRMC,044508.00,A,5036.5282,N,03636.5541,E,7.699,245.030,111221,,E,A*1F
$GPGGA,044509.00,5036.5271,N,03636.5507,E,1,13,0.779,145.783,M,,M,0,*4F
$GNGSA,A,3,1,3,4,17,19,21,31,32,206,68,69,78,85,,,,,,,,1.325,0.779,1.072*2B
$GPGSA,A,3,1,3,4,17,19,21,31,32,,,,,,,,,,,,,1.325,0.779,1.072*02
$GLGSA,A,3,68,69,78,85,,,,,,,,,,,,,,,,,1.325,0.779,1.072*25
$BDGSA,A,3,206,,,,,,,,,,,,,,,,,,,,1.325,0.779,1.072*1F
$QZGSA,A,3,,,,,,,,,,,,,,,,,,,,,1.325,0.779,1.072*26
$GPGSV,8,1,28,1,72,269,26,3,41,278,22,4,10,219,17,8,6,201,*48
$GPGSV,8,2,28,17,23,312,22,19,9,332,15,21,66,190,24,22,67,286,18*40
$GPGSV,8,3,28,28,5,,,31,31,119,28,32,40,57,27*76
$GLGSV,8,4,28,68,32,51,20,69,77,335,19,70,25,250,17,77,14,18,10*64
$GLGSV,8,5,28,78,18,73,24,83,8,169,,84,61,209,,85,39,319,30*64
$BDGSV,8,6,28,201,5,,,202,10,114,,203,31,187,,204,5,,*61
$BDGSV,8,7,28,205,32,161,,206,48,63,18,209,52,69,,216,40,54,*5A
$BDGSV,8,8,28,219,32,256,*68
$GPRMC,044509.00,A,5036.5271,N,03636.5507,E,8.062,243.783,111221,,E,A*14
$GPGGA,044510.00,5036.5259,N,03636.5472,E,1,13,0.779,145.785,M,,M,0,*48
$GNGSA,A,3,1,3,4,17,19,21,31,32,206,68,69,78,85,,,,,,,,1.325,0.779,1.072*2B
$GPGSA,A,3,1,3,4,17,19,21,31,32,,,,,,,,,,,,,1.325,0.779,1.072*02
$GLGSA,A,3,68,69,78,85,,,,,,,,,,,,,,,,,1.325,0.779,1.072*25
$BDGSA,A,3,206,,,,,,,,,,,,,,,,,,,,1.325,0.779,1.072*1F
$QZGSA,A,3,,,,,,,,,,,,,,,,,,,,,1.325,0.779,1.072*26
$GPGSV,8,1,28,1,72,269,21,3,41,278,19,4,10,219,15,8,6,201,*45
$GPGSV,8,2,28,17,23,312,22,19,9,332,14,21,66,190,18,22,67,286,18*4E
$GPGSV,8,3,28,28,5,,,31,31,119,28,32,40,57,27*76
$GLGSV,8,4,28,68,32,51,20,69,77,335,25,70,25,250,16,77,14,18,10*6A
$GLGSV,8,5,28,78,18,73,22,83,8,169,,84,61,209,,85,39,319,23*60
$BDGSV,8,6,28,201,5,,,202,10,114,,203,31,187,,204,5,,*61
$BDGSV,8,7,28,205,32,161,,206,48,63,18,209,52,69,,216,40,54,*5A
$BDGSV,8,8,28,219,32,256,*68
$GPRMC,044510.00,A,5036.5259,N,03636.5472,E,8.297,248.188,111221,,E,A*1B
$GPGGA,044511.00,5036.5252,N,03636.5434,E,1,13,0.779,146.621,M,,M,0,*4C
$GNGSA,A,3,1,3,4,17,19,21,31,32,206,68,69,78,85,,,,,,,,1.326,0.779,1.072*28
$GPGSA,A,3,1,3,4,17,19,21,31,32,,,,,,,,,,,,,1.326,0.779,1.072*01
$GLGSA,A,3,68,69,78,85,,,,,,,,,,,,,,,,,1.326,0.779,1.072*26
$BDGSA,A,3,206,,,,,,,,,,,,,,,,,,,,1.326,0.779,1.072*1C
$QZGSA,A,3,,,,,,,,,,,,,,,,,,,,,1.326,0.779,1.072*25
$GPGSV,8,1,28,1,72,269,23,3,41,278,22,4,10,219,13,8,6,201,*49
$GPGSV,8,2,28,17,23,312,24,19,9,332,16,21,66,190,18,22,67,286,18*4A
$GPGSV,8,3,28,28,5,,,31,31,119,31,32,40,57,21*78
$GLGSV,8,4,28,68,32,51,19,69,77,335,25,70,25,250,16,77,14,18,8*59
$GLGSV,8,5,28,78,18,73,23,83,8,169,,84,61,209,,85,39,319,20*62
$BDGSV,8,6,28,201,5,,,202,10,114,,203,31,187,,204,5,,*61
$BDGSV,8,7,28,205,32,161,,206,48,63,18,209,52,69,,216,40,54,*5A
$BDGSV,8,8,28,219,32,256,*68
$GPRMC,044511.00,A,5036.5252,N,03636.5434,E,8.599,255.111,111221,,E,A*16
$GPGGA,044512.00,5036.5252,N,03636.5394,E,1,13,0.779,147.952,M,,M,0,*48
$GNGSA,A,3,1,3,4,17,19,21,31,32,206,68,69,78,85,,,,,,,,1.326,0.779,1.072*28
$GPGSA,A,3,1,3,4,17,19,21,31,32,,,,,,,,,,,,,1.326,0.779,1.072*01
$GLGSA,A,3,68,69,78,85,,,,,,,,,,,,,,,,,1.326,0.779,1.072*26
$BDGSA,A,3,206,,,,,,,,,,,,,,,,,,,,1.326,0.779,1.072*1C
$QZGSA,A,3,,,,,,,,,,,,,,,,,,,,,1.326,0.779,1.072*25
$GPGSV,8,1,28,1,72,269,23,3,41,278,22,4,10,219,13,8,6,201,*49
$GPGSV,8,2,28,17,23,312,28,19,9,332,16,21,66,190,19,22,67,286,17*48
$GPGSV,8,3,28,28,5,,,31,31,119,29,32,40,57,23*73
$GLGSV,8,4,28,68,32,51,17,69,77,335,27,70,25,250,15,77,14,18,8*56
$GLGSV,8,5,28,78,18,73,21,83,8,169,,84,61,209,,85,39,319,28*68
$BDGSV,8,6,28,201,5,,,202,10,114,,203,31,187,,204,5,,*61
$BDGSV,8,7,28,205,32,161,,206,48,63,15,209,52,69,,216,40,54,*57
$BDGSV,8,8,28,219,32,256,*68
$GPRMC,044512.00,A,5036.5252,N,03636.5394,E,8.456,263.476,111221,,E,A*1B
$GPGGA,044513.00,5036.5251,N,03636.5356,E,1,13,0.780,148.597,M,,M,0,*48
$GNGSA,A,3,1,3,4,17,19,21,31,32,206,68,69,78,85,,,,,,,,1.326,0.780,1.072*2E
$GPGSA,A,3,1,3,4,17,19,21,31,32,,,,,,,,,,,,,1.326,0.780,1.072*07
$GLGSA,A,3,68,69,78,85,,,,,,,,,,,,,,,,,1.326,0.780,1.072*20
$BDGSA,A,3,206,,,,,,,,,,,,,,,,,,,,1.326,0.780,1.072*1A
$QZGSA,A,3,,,,,,,,,,,,,,,,,,,,,1.326,0.780,1.072*23
$GPGSV,8,1,28,1,72,269,23,3,41,278,22,4,10,219,13,8,6,201,*49
$GPGSV,8,2,28,17,23,312,27,19,9,332,16,21,66,189,17,22,67,286,16*40
$GPGSV,8,3,28,28,5,,,31,31,119,29,32,40,57,22*72
$GLGSV,8,4,28,68,32,51,18,69,77,335,26,70,25,250,14,77,14,18,8*59
$GLGSV,8,5,28,78,18,73,20,83,8,169,,84,61,209,,85,39,319,30*60
$BDGSV,8,6,28,201,5,,,202,10,114,,203,31,187,,204,5,,*61
$BDGSV,8,7,28,205,32,161,,206,48,63,14,209,52,69,,216,40,54,*56
$BDGSV,8,8,28,219,32,256,*68
$GPRMC,044513.00,A,5036.5251,N,03636.5356,E,8.052,267.555,111221,,E,A*13
$GPGGA,044514.00,5036.5246,N,03636.5319,E,1,13,0.780,148.606,M,,M,0,*49
$GNGSA,A,3,1,3,4,17,19,21,31,32,206,68,69,78,85,,,,,,,,1.326,0.780,1.073*2F
$GPGSA,A,3,1,3,4,17,19,21,31,32,,,,,,,,,,,,,1.326,0.780,1.073*06
$GLGSA,A,3,68,69,78,85,,,,,,,,,,,,,,,,,1.326,0.780,1.073*21
$BDGSA,A,3,206,,,,,,,,,,,,,,,,,,,,1.326,0.780,1.073*1B
$QZGSA,A,3,,,,,,,,,,,,,,,,,,,,,1.326,0.780,1.073*22
$GPGSV,8,1,28,1,72,269,20,3,41,278,20,4,10,219,14,8,6,201,*4F
$GPGSV,8,2,28,17,23,312,24,19,9,332,16,21,66,189,17,22,67,286,15*40
$GPGSV,8,3,28,28,5,,,31,31,119,30,32,40,57,27*7F
$GLGSV,8,4,28,68,32,51,18,69,77,335,24,70,25,251,14,77,14,17,8*55
$GLGSV,8,5,28,78,18,73,21,83,8,169,,84,61,209,,85,39,319,28*68
$BDGSV,8,6,28,201,5,,,202,10,114,,203,31,187,,204,5,,*61
$BDGSV,8,7,28,205,32,161,,206,48,63,13,209,52,69,,216,40,54,*51
$BDGSV,8,8,28,219,32,256,*68
$GPRMC,044514.00,A,5036.5246,N,03636.5319,E,7.785,263.095,111221,,E,A*16
$GPGGA,044515.00,5036.5230,N,03636.5273,E,1,13,0.780,148.102,M,,M,0,*47
$GNGSA,A,3,1,3,4,17,19,21,31,32,206,68,69,78,85,,,,,,,,1.326,0.780,1.073*2F
$GPGSA,A,3,1,3,4,17,19,21,31,32,,,,,,,,,,,,,1.326,0.780,1.073*06
$GLGSA,A,3,68,69,78,85,,,,,,,,,,,,,,,,,1.326,0.780,1.073*21
$BDGSA,A,3,206,,,,,,,,,,,,,,,,,,,,1.326,0.780,1.073*1B
$QZGSA,A,3,,,,,,,,,,,,,,,,,,,,,1.326,0.780,1.073*22
$GPGSV,8,1,28,1,72,269,27,3,41,278,28,4,10,219,16,8,6,201,*42
$GPGSV,8,2,28,17,23,312,21,19,9,331,26,21,66,189,24,22,67,286,16*46
$GPGSV,8,3,28,28,5,,,31,31,119,29,32,40,57,34*75
$GLGSV,8,4,28,68,32,51,27,69,77,335,21,70,25,251,13,77,14,17,8*5B
$GLGSV,8,5,28,78,18,73,20,83,8,169,,84,61,209,,85,39,319,33*63
$BDGSV,8,6,28,201,5,,,202,10,114,,203,31,187,,204,5,,*61
$BDGSV,8,7,28,205,32,161,,206,48,63,14,209,52,69,,216,40,54,*56
$BDGSV,8,8,28,219,32,256,*68
$GPRMC,044515.00,A,5036.5230,N,03636.5273,E,8.042,248.510,111221,,E,A*19
$GPGGA,044516.00,5036.5218,N,03636.5243,E,1,13,0.780,147.580,M,,M,0,*4C
$GNGSA,A,3,1,3,4,17,19,21,31,32,206,68,69,78,85,,,,,,,,1.326,0.780,1.073*2F
$GPGSA,A,3,1,3,4,17,19,21,31,32,,,,,,,,,,,,,1.326,0.780,1.073*06
$GLGSA,A,3,68,69,78,85,,,,,,,,,,,,,,,,,1.326,0.780,1.073*21
$BDGSA,A,3,206,,,,,,,,,,,,,,,,,,,,1.326,0.780,1.073*1B
$QZGSA,A,3,,,,,,,,,,,,,,,,,,,,,1.326,0.780,1.073*22
$GPGSV,8,1,28,1,72,269,28,3,41,278,31,4,10,219,16,8,6,201,*45
$GPGSV,8,2,28,17,23,312,26,19,9,331,24,21,66,189,22,22,67,286,25*45
$GPGSV,8,3,28,28,5,,,31,31,119,22,32,40,57,27*7C
$GLGSV,8,4,28,68,32,51,26,69,77,335,24,70,25,251,14,77,14,17,8*58
$GLGSV,8,5,28,78,18,73,24,83,8,169,,84,61,209,17,85,39,319,29*6A
$BDGSV,8,6,28,201,5,,,202,10,114,,203,31,187,,204,5,,*61
$BDGSV,8,7,28,205,32,161,,206,48,63,16,209,52,69,,216,40,54,*54
$BDGSV,8,8,28,219,32,256,*68
$GPRMC,044516.00,A,5036.5218,N,03636.5243,E,8.626,233.575,111221,,E,A*18
$GPGGA,044517.00,5036.5201,N,03636.5214,E,1,13,0.780,147.524,M,,M,0,*49
$GNGSA,A,3,1,3,4,17,19,21,31,32,206,68,69,78,85,,,,,,,,1.326,0.780,1.073*2F
$GPGSA,A,3,1,3,4,17,19,21,31,32,,,,,,,,,,,,,1.326,0.780,1.073*06
$GLGSA,A,3,68,69,78,85,,,,,,,,,,,,,,,,,1.326,0.780,1.073*21
$BDGSA,A,3,206,,,,,,,,,,,,,,,,,,,,1.326,0.780,1.073*1B
$QZGSA,A,3,,,,,,,,,,,,,,,,,,,,,1.326,0.780,1.073*22
$GPGSV,8,1,28,1,72,269,28,3,41,278,30,4,10,219,16,8,6,201,*44
$GPGSV,8,2,28,17,23,312,21,19,9,331,21,21,66,189,23,22,67,286,21*42
$GPGSV,8,3,28,28,5,,,31,31,119,22,32,40,57,30*7A
$GLGSV,8,4,28,68,32,51,23,69,77,335,25,70,25,251,15,77,14,17,9*5C
$GLGSV,8,5,28,78,18,72,24,83,8,169,,84,61,209,16,85,39,319,35*67
$BDGSV,8,6,28,201,5,,,202,10,114,,203,31,187,,204,5,,*61
$BDGSV,8,7,28,205,32,161,,206,48,63,17,209,52,69,,216,40,54,*55
$BDGSV,8,8,28,219,32,256,*68
$GPRMC,044517.00,A,5036.5201,N,03636.5214,E,8.896,214.691,111221,,E,A*1A
$GPGGA,044518.00,5036.5182,N,03636.5189,E,1,14,0.756,148.777,M,,M,0,*4E
$GNGSA,A,3,1,3,4,17,19,21,31,32,206,68,69,78,84,85,,,,,,,1.289,0.756,1.043*2F
$GPGSA,A,3,1,3,4,17,19,21,31,32,,,,,,,,,,,,,1.289,0.756,1.043*0A
$GLGSA,A,3,68,69,78,84,85,,,,,,,,,,,,,,,,1.289,0.756,1.043*21
$BDGSA,A,3,206,,,,,,,,,,,,,,,,,,,,1.289,0.756,1.043*17
$QZGSA,A,3,,,,,,,,,,,,,,,,,,,,,1.289,0.756,1.043*2E
$GPGSV,8,1,28,1,72,269,19,3,41,278,33,4,10,219,17,8,6,201,*44
$GPGSV,8,2,28,17,23,312,28,19,9,331,23,21,66,189,22,22,67,286,18*42
$GPGSV,8,3,28,28,5,,,31,31,119,21,32,40,57,31*78
$GLGSV,8,4,28,68,32,51,29,69,77,335,23,70,25,251,15,77,14,17,10*68
$GLGSV,8,5,28,78,18,72,21,83,8,169,,84,61,209,14,85,39,319,36*63
$BDGSV,8,6,28,201,5,,,202,10,114,,203,31,187,,204,5,,*61
$BDGSV,8,7,28,205,32,161,,206,48,63,23,209,52,69,,216,40,54,*52
$BDGSV,8,8,28,219,32,256,*68
$GPRMC,044518.00,A,5036.5182,N,03636.5189,E,8.673,211.796,111221,,E,A*1C
$GPGGA,044519.00,5036.5168,N,03636.5169,E,1,14,0.756,151.062,M,,M,0,*4E
$GNGSA,A,3,1,3,4,17,19,21,31,32,206,68,69,78,84,85,,,,,,,1.289,0.756,1.044*28
$GPGSA,A,3,1,3,4,17,19,21,31,32,,,,,,,,,,,,,1.289,0.756,1.044*0D
$GLGSA,A,3,68,69,78,84,85,,,,,,,,,,,,,,,,1.289,0.756,1.044*26
$BDGSA,A,3,206,,,,,,,,,,,,,,,,,,,,1.289,0.756,1.044*10
$QZGSA,A,3,,,,,,,,,,,,,,,,,,,,,1.289,0.756,1.044*29
$GPGSV,8,1,28,1,72,269,22,3,41,278,35,4,10,219,16,8,6,201,*4B
$GPGSV,8,2,28,17,23,312,28,19,9,331,25,21,66,189,24,22,67,286,16*4C
$GPGSV,8,3,28,28,5,,,31,31,119,24,32,40,57,30*7C
$GLGSV,8,4,28,68,32,52,29,69,77,335,23,70,25,251,15,77,14,17,12*69
$GLGSV,8,5,28,78,18,72,20,83,8,169,,84,61,209,13,85,39,319,39*6A
$BDGSV,8,6,28,201,5,,,202,10,114,,203,31,187,,204,5,,*61
$BDGSV,8,7,28,205,32,161,,206,48,63,22,209,52,69,,216,40,54,*53
$BDGSV,8,8,28,219,32,256,*68
$GPRMC,044519.00,A,5036.5168,N,03636.5169,E,7.798,207.893,111221,,E,A*11
$GPGGA,044520.00,5036.5150,N,03636.5154,E,1,14,0.756,153.085,M,,M,0,*4A
$GNGSA,A,3,1,3,4,17,19,21,31,32,206,68,69,78,84,85,,,,,,,1.289,0.756,1.044*28
$GPGSA,A,3,1,3,4,17,19,21,31,32,,,,,,,,,,,,,1.289,0.756,1.044*0D
$GLGSA,A,3,68,69,78,84,85,,,,,,,,,,,,,,,,1.289,0.756,1.044*26
$BDGSA,A,3,206,,,,,,,,,,,,,,,,,,,,1.289,0.756,1.044*10
$QZGSA,A,3,,,,,,,,,,,,,,,,,,,,,1.289,0.756,1.044*29
$GPGSV,8,1,28,1,72,269,20,3,41,278,35,4,10,219,15,8,6,201,*4A
$GPGSV,8,2,28,17,23,312,28,19,9,331,27,21,66,189,26,22,67,286,15*4F
$GPGSV,8,3,28,28,5,,,31,31,119,28,32,40,57,30*70
$GLGSV,8,4,28,68,32,52,29,69,77,335,23,70,25,251,16,77,14,17,13*6B
$GLGSV,8,5,28,78,18,72,23,83,8,169,,84,61,209,13,85,39,319,39*69
$BDGSV,8,6,28,201,5,,,202,10,114,,203,31,187,,204,5,,*61
$BDGSV,8,7,28,205,32,161,,206,48,63,26,209,52,69,,216,40,54,*57
$BDGSV,8,8,28,219,32,256,*68
$GPRMC,044520.00,A,5036.5150,N,03636.5154,E,7.429,204.463,111221,,E,A*17
$GPGGA,044521.00,5036.5131,N,03636.5140,E,1,14,0.756,153.940,M,,M,0,*49
$GNGSA,A,3,1,3,4,17,19,21,31,32,206,68,69,78,84,85,,,,,,,1.289,0.756,1.044*28
$GPGSA,A,3,1,3,4,17,19,21,31,32,,,,,,,,,,,,,1.289,0.756,1.044*0D
$GLGSA,A,3,68,69,78,84,85,,,,,,,,,,,,,,,,1.289,0.756,1.044*26
$BDGSA,A,3,206,,,,,,,,,,,,,,,,,,,,1.289,0.756,1.044*10
$QZGSA,A,3,,,,,,,,,,,,,,,,,,,,,1.289,0.756,1.044*29
$GPGSV,8,1,28,1,72,269,22,3,41,278,34,4,10,219,14,8,6,201,*48
$GPGSV,8,2,28,17,23,312,28,19,9,331,27,21,66,189,25,22,67,286,16*4F
$GPGSV,8,3,28,28,5,,,31,31,119,29,32,40,57,34*75
$GLGSV,8,4,28,68,32,52,26,69,77,335,23,70,25,251,15,77,14,17,13*67
$GLGSV,8,5,28,78,18,72,20,83,8,169,,84,61,209,13,85,40,319,39*64
$BDGSV,8,6,28,201,5,,,202,10,114,,203,31,187,,204,5,,*61
$BDGSV,8,7,28,205,32,161,,206,48,63,24,209,52,69,,216,40,54,*55
$BDGSV,8,8,28,219,32,256,*68
$GPRMC,044521.00,A,5036.5131,N,03636.5140,E,7.277,202.803,111221,,E,A*15
$GPGGA,044522.00,5036.5112,N,03636.5125,E,1,14,0.756,154.707,M,,M,0,*42
$GNGSA,A,3,1,3,4,17,19,21,31,32,206,68,69,78,84,85,,,,,,,1.289,0.756,1.044*28
$GPGSA,A,3,1,3,4,17,19,21,31,32,,,,,,,,,,,,,1.289,0.756,1.044*0D
$GLGSA,A,3,68,69,78,84,85,,,,,,,,,,,,,,,,1.289,0.756,1.044*26
$BDGSA,A,3,206,,,,,,,,,,,,,,,,,,,,1.289,0.756,1.044*10
$QZGSA,A,3,,,,,,,,,,,,,,,,,,,,,1.289,0.756,1.044*29
$GPGSV,8,1,28,1,72,269,21,3,41,278,34,4,10,219,13,8,6,201,*4C
$GPGSV,8,2,28,17,23,312,31,19,9,331,27,21,66,189,23,22,67,286,14*43
$GPGSV,8,3,28,28,5,,,31,31,119,28,32,40,57,34*74
$GLGSV,8,4,28,68,32,52,21,69,77,335,21,70,25,251,14,77,14,17,13*63
$GLGSV,8,5,28,78,18,72,22,83,8,169,,84,61,209,13,85,40,319,38*67
$BDGSV,8,6,28,201,5,,,202,10,114,,203,31,187,,204,5,,*61
$BDGSV,8,7,28,205,32,161,,206,48,63,22,209,52,69,,216,40,54,*53
$BDGSV,8,8,28,219,32,256,*68
$GPRMC,044522.00,A,5036.5112,N,03636.5125,E,7.072,201.726,111221,,E,A*18
$GPGGA,044523.00,5036.5093,N,03636.5112,E,1,14,0.756,154.973,M,,M,0,*42
$GNGSA,A,3,1,3,4,17,19,21,31,32,206,68,69,78,84,85,,,,,,,1.289,0.756,1.044*28
$GPGSA,A,3,1,3,4,17,19,21,31,32,,,,,,,,,,,,,1.289,0.756,1.044*0D
$GLGSA,A,3,68,69,78,84,85,,,,,,,,,,,,,,,,1.289,0.756,1.044*26
$BDGSA,A,3,206,,,,,,,,,,,,,,,,,,,,1.289,0.756,1.044*10
$QZGSA,A,3,,,,,,,,,,,,,,,,,,,,,1.289,0.756,1.044*29
$GPGSV,8,1,28,1,72,269,20,3,41,278,33,4,10,219,11,8,6,201,*48
$GPGSV,8,2,28,17,23,312,33,19,9,331,24,21,66,189,26,22,67,286,14*47
$GPGSV,8,3,28,28,5,,,31,31,119,28,32,40,57,33*73
$GLGSV,8,4,28,68,32,52,18,69,77,335,21,70,25,251,14,77,14,17,14*6E
$GLGSV,8,5,28,78,18,72,19,83,8,169,,84,61,209,13,85,40,319,38*6F
$BDGSV,8,6,28,201,5,,,202,10,114,,203,31,187,,204,5,,*61
$BDGSV,8,7,28,205,32,161,,206,48,63,21,209,52,69,,216,40,54,*50
$BDGSV,8,8,28,219,32,256,*68
$GPRMC,044523.00,A,5036.5093,N,03636.5112,E,7.212,200.200,111221,,E,A*11
$GPGGA,044524.00,5036.5072,N,03636.5101,E,1,14,0.756,154.709,M,,M,0,*4B
$GNGSA,A,3,1,3,4,17,19,21,31,32,206,68,69,78,84,85,,,,,,,1.290,0.756,1.044*20
$GPGSA,A,3,1,3,4,17,19,21,31,32,,,,,,,,,,,,,1.290,0.756,1.044*05
$GLGSA,A,3,68,69,78,84,85,,,,,,,,,,,,,,,,1.290,0.756,1.044*2E
$BDGSA,A,3,206,,,,,,,,,,,,,,,,,,,,1.290,0.756,1.044*18
$QZGSA,A,3,,,,,,,,,,,,,,,,,,,,,1.290,0.756,1.044*21
$GPGSV,8,1,28,1,72,268,18,3,41,279,33,4,10,219,12,8,6,201,*40
$GPGSV,8,2,28,17,23,312,31,19,9,331,18,21,66,189,26,22,67,286,14*4A
$GPGSV,8,3,28,28,5,,,31,31,119,28,32,40,57,33*73
$GLGSV,8,4,28,68,32,52,20,69,77,335,19,70,25,251,16,77,14,17,14*6C
$GLGSV,8,5,28,78,18,72,19,83,8,169,,84,61,209,14,85,40,319,37*67
$BDGSV,8,6,28,201,5,,,202,10,114,,203,31,187,,204,5,,*61
$BDGSV,8,7,28,205,32,161,,206,48,63,23,209,52,69,,216,40,54,*52
$BDGSV,8,8,28,219,32,256,*68
$GPRMC,044524.00,A,5036.5072,N,03636.5101,E,7.824,197.398,111221,,E,A*19
$GPGGA,044525.00,5036.5052,N,03636.5088,E,1,14,0.756,154.087,M,,M,0,*49
$GNGSA,A,3,1,3,4,17,19,21,31,32,206,68,69,78,84,85,,,,,,,1.290,0.756,1.045*21
$GPGSA,A,3,1,3,4,17,19,21,31,32,,,,,,,,,,,,,1.290,0.756,1.045*04
$GLGSA,A,3,68,69,78,84,85,,,,,,,,,,,,,,,,1.290,0.756,1.045*2F
$BDGSA,A,3,206,,,,,,,,,,,,,,,,,,,,1.290,0.756,1.045*19
$QZGSA,A,3,,,,,,,,,,,,,,,,,,,,,1.290,0.756,1.045*20
$GPGSV,8,1,28,1,72,268,20,3,41,279,32,4,10,219,12,8,6,201,*4A
$GPGSV,8,2,28,17,23,312,27,19,9,331,20,21,66,189,26,22,67,286,15*47
$GPGSV,8,3,28,28,5,,,31,31,119,31,32,40,57,33*7B
$GLGSV,8,4,28,68,32,52,21,69,77,335,21,70,25,251,17,77,14,17,14*67
$GLGSV,8,5,28,78,18,72,17,83,8,169,,84,61,209,14,85,40,319,37*69
$BDGSV,8,6,28,201,5,,,202,10,114,,203,31,187,,204,5,,*61
$BDGSV,8,7,28,205,32,161,,206,48,63,21,209,52,69,,216,40,54,*50
$BDGSV,8,8,28,219,32,256,*68
$GPRMC,044525.00,A,5036.5052,N,03636.5088,E,6.453,206.035,111221,,E,A*18
$GPGGA,044526.00,5036.5033,N,03636.5075,E,1,15,0.729,153.202,M,,M,0,*4E
$GNGSA,A,3,1,3,4,17,19,21,31,32,206,68,69,77,78,84,85,,,,,,1.249,0.729,1.014*29
$GPGSA,A,3,1,3,4,17,19,21,31,32,,,,,,,,,,,,,1.249,0.729,1.014*0C
$GLGSA,A,3,68,69,77,78,84,85,,,,,,,,,,,,,,,1.249,0.729,1.014*27
$BDGSA,A,3,206,,,,,,,,,,,,,,,,,,,,1.249,0.729,1.014*11
$QZGSA,A,3,,,,,,,,,,,,,,,,,,,,,1.249,0.729,1.014*28
$GPGSV,8,1,28,1,72,268,19,3,41,279,34,4,10,219,12,8,6,201,*46
$GPGSV,8,2,28,17,23,312,30,19,9,331,20,21,66,189,26,22,67,286,15*41
$GPGSV,8,3,28,28,5,,,31,31,119,30,32,40,57,32*7B
$GLGSV,8,4,28,68,32,52,19,69,77,335,19,70,25,251,16,77,14,17,13*61
$GLGSV,8,5,28,78,18,72,19,83,8,169,,84,61,209,15,85,40,319,37*66
$BDGSV,8,6,28,201,5,,,202,10,114,,203,31,187,,204,5,,*61
$BDGSV,8,7,28,205,32,161,,206,48,63,22,209,52,69,,216,40,54,*53
$BDGSV,8,8,28,219,32,256,*68
$GPRMC,044526.00,A,5036.5033,N,03636.5075,E,6.987,206.206,111221,,E,A*18
$GPGGA,044527.00,5036.5017,N,03636.5061,E,1,15,0.729,152.600,M,,M,0,*4B
$GNGSA,A,3,1,3,4,17,19,21,31,32,206,68,69,77,78,84,85,,,,,,1.249,0.729,1.014*29
$GPGSA,A,3,1,3,4,17,19,21,31,32,,,,,,,,,,,,,1.249,0.729,1.014*0C
$GLGSA,A,3,68,69,77,78,84,85,,,,,,,,,,,,,,,1.249,0.729,1.014*27
$BDGSA,A,3,206,,,,,,,,,,,,,,,,,,,,1.249,0.729,1.014*11
$QZGSA,A,3,,,,,,,,,,,,,,,,,,,,,1.249,0.729,1.014*28
$GPGSV,8,1,28,1,72,268,19,3,41,279,31,4,10,219,12,8,6,201,*43
$GPGSV,8,2,28,17,23,312,28,19,9,331,19,21,66,189,27,22,67,286,15*43
$GPGSV,8,3,28,28,5,,,31,31,119,23,32,40,57,32*79
$GLGSV,8,4,28,68,32,52,18,69,77,335,19,70,25,251,16,77,14,17,13*60
$GLGSV,8,5,28,78,18,72,18,83,8,169,,84,61,209,15,85,40,319,37*67
$BDGSV,8,6,28,201,5,,,202,10,114,,203,31,187,,204,5,,*61
$BDGSV,8,7,28,205,32,161,,206,48,63,23,209,52,69,,216,40,54,*52
$BDGSV,8,8,28,219,32,256,*68
$GPRMC,044527.00,A,5036.5017,N,03636.5061,E,6.629,210.802,111221,,E,A*18
$GPGGA,044528.00,5036.5001,N,03636.5044,E,1,15,0.729,151.865,M,,M,0,*4A
$GNGSA,A,3,1,3,4,17,19,21,31,32,206,68,69,77,78,84,85,,,,,,1.249,0.729,1.014*29
$GPGSA,A,3,1,3,4,17,19,21,31,32,,,,,,,,,,,,,1.249,0.729,1.014*0C
$GLGSA,A,3,68,69,77,78,84,85,,,,,,,,,,,,,,,1.249,0.729,1.014*27
$BDGSA,A,3,206,,,,,,,,,,,,,,,,,,,,1.249,0.729,1.014*11
$QZGSA,A,3,,,,,,,,,,,,,,,,,,,,,1.249,0.729,1.014*28
$GPGSV,8,1,28,1,72,268,19,3,41,279,34,4,10,219,12,8,6,201,*46
$GPGSV,8,2,28,17,23,312,23,19,9,331,18,21,66,189,26,22,67,286,15*48
$GPGSV,8,3,28,28,5,,,31,31,119,26,32,40,57,32*7C
$GLGSV,8,4,28,68,32,52,23,69,77,335,22,70,25,251,15,77,14,17,13*63
$GLGSV,8,5,28,78,18,72,19,83,8,169,,84,61,209,16,85,40,319,34*66
$BDGSV,8,6,28,201,5,,,202,10,114,,203,31,187,,204,5,,*61
$BDGSV,8,7,28,205,32,161,,206,48,63,23,209,52,69,,216,40,54,*52
$BDGSV,8,8,28,219,32,256,*68
$GPRMC,044528.00,A,5036.5001,N,03636.5044,E,6.911,216.514,111221,,E,A*1F
$GPGGA,044529.00,5036.4984,N,03636.5028,E,1,15,0.729,150.796,M,,M,0,*46
$GNGSA,A,3,1,3,4,17,19,21,31,32,206,68,69,77,78,84,85,,,,,,1.249,0.729,1.014*29
$GPGSA,A,3,1,3,4,17,19,21,31,32,,,,,,,,,,,,,1.249,0.729,1.014*0C
$GLGSA,A,3,68,69,77,78,84,85,,,,,,,,,,,,,,,1.249,0.729,1.014*27
$BDGSA,A,3,206,,,,,,,,,,,,,,,,,,,,1.249,0.729,1.014*11
$QZGSA,A,3,,,,,,,,,,,,,,,,,,,,,1.249,0.729,1.014*28
$GPGSV,8,1,28,1,72,268,20,3,41,279,36,4,10,219,11,8,6,201,*4D
$GPGSV,8,2,28,17,23,312,27,19,9,331,18,21,66,189,27,22,67,286,14*4C
$GPGSV,8,3,28,28,5,,,31,31,119,30,32,40,57,33*7A
$GLGSV,8,4,28,68,32,52,23,69,77,335,24,70,25,251,12,77,14,17,13*62
$GLGSV,8,5,28,78,18,72,18,83,8,169,,84,61,209,16,85,40,319,37*64
$BDGSV,8,6,28,201,5,,,202,10,114,,203,31,187,,204,5,,*61
$BDGSV,8,7,28,205,32,161,,206,48,63,22,209,52,69,,216,40,54,*53
$BDGSV,8,8,28,219,32,256,*68
$GPRMC,044529.00,A,5036.4984,N,03636.5028,E,6.257,210.162,111221,,E,A*1B
$GPGGA,044530.00,5036.4966,N,03636.5014,E,1,15,0.729,149.336,M,,M,0,*4B
$GNGSA,A,3,1,3,4,17,19,21,31,32,206,68,69,77,78,84,85,,,,,,1.249,0.729,1.014*29
$GPGSA,A,3,1,3,4,17,19,21,31,32,,,,,,,,,,,,,1.249,0.729,1.014*0C
$GLGSA,A,3,68,69,77,78,84,85,,,,,,,,,,,,,,,1.249,0.729,1.014*27
$BDGSA,A,3,206,,,,,,,,,,,,,,,,,,,,1.249,0.729,1.014*11
$QZGSA,A,3,,,,,,,,,,,,,,,,,,,,,1.249,0.729,1.014*28
$GPGSV,8,1,28,1,72,268,20,3,41,279,34,4,10,219,11,8,6,201,*4F
$GPGSV,8,2,28,17,23,312,31,19,9,331,18,21,66,189,26,22,67,286,13*4D
$GPGSV,8,3,28,28,5,,,31,31,119,31,32,40,57,33*7B
$GLGSV,8,4,28,68,32,52,23,69,77,336,20,70,25,251,12,77,14,17,13*65
$GLGSV,8,5,28,78,18,72,19,83,8,169,,84,61,209,16,85,40,319,38*6A
$BDGSV,8,6,28,201,5,,,202,10,114,,203,31,187,,204,5,,*61
$BDGSV,8,7,28,205,32,161,,206,48,63,22,209,52,69,,216,40,54,*53
$BDGSV,8,8,28,219,32,256,*68
$GPRMC,044530.00,A,5036.4966,N,03636.5014,E,7.179,202.621,111221,,E,A*1D
$GPGGA,044531.00,5036.4944,N,03636.5002,E,1,15,0.729,148.021,M,,M,0,*49
$GNGSA,A,3,1,3,4,17,19,21,31,32,206,68,69,77,78,84,85,,,,,,1.249,0.729,1.014*29
$GPGSA,A,3,1,3,4,17,19,21,31,32,,,,,,,,,,,,,1.249,0.729,1.014*0C
$GLGSA,A,3,68,69,77,78,84,85,,,,,,,,,,,,,,,1.249,0.729,1.014*27
$BDGSA,A,3,206,,,,,,,,,,,,,,,,,,,,1.249,0.729,1.014*11
$QZGSA,A,3,,,,,,,,,,,,,,,,,,,,,1.249,0.729,1.014*28
$GPGSV,8,1,28,1,72,268,20,3,41,279,27,4,10,219,10,8,6,201,*4C
$GPGSV,8,2,28,17,23,312,32,19,9,331,27,21,66,189,22,22,67,286,15*40
$GPGSV,8,3,28,28,5,,,31,31,119,30,32,40,57,28*70
$GLGSV,8,4,28,68,32,52,25,69,77,336,19,70,25,251,12,77,14,17,13*69
$GLGSV,8,5,28,78,18,72,24,83,8,169,,84,61,209,15,85,40,319,34*6B
$BDGSV,8,6,28,201,5,,,202,10,114,,203,31,187,,204,5,,*61
$BDGSV,8,7,28,205,32,161,,206,48,63,19,209,52,69,,216,40,54,*5B
$BDGSV,8,8,28,219,32,256,*68
$GPRMC,044531.00,A,5036.4944,N,03636.5002,E,7.311,203.523,111221,,E,A*17
$GPGGA,044532.00,5036.4922,N,03636.4993,E,1,15,0.729,147.171,M,,M,0,*41
$GNGSA,A,3,1,3,4,17,19,21,31,32,206,68,69,77,78,84,85,,,,,,1.249,0.729,1.015*28
$GPGSA,A,3,1,3,4,17,19,21,31,32,,,,,,,,,,,,,1.249,0.729,1.015*0D
$GLGSA,A,3,68,69,77,78,84,85,,,,,,,,,,,,,,,1.249,0.729,1.015*26
$BDGSA,A,3,206,,,,,,,,,,,,,,,,,,,,1.249,0.729,1.015*10
$QZGSA,A,3,,,,,,,,,,,,,,,,,,,,,1.249,0.729,1.015*29
$GPGSV,8,1,28,1,72,268,24,3,41,279,23,4,10,219,10,8,6,201,*4C
$GPGSV,8,2,28,17,23,312,27,19,9,331,23,21,66,189,27,22,67,286,27*44
$GPGSV,8,3,28,28,5,,,31,31,119,24,32,40,57,27*7A
$GLGSV,8,4,28,68,32,52,21,69,77,336,23,70,25,251,14,77,14,17,12*63
$GLGSV,8,5,28,78,18,72,22,83,8,169,,84,61,209,14,85,40,319,36*6E
$BDGSV,8,6,28,201,5,,,202,10,114,,203,31,187,,204,5,,*61
$BDGSV,8,7,28,205,32,161,,206,48,63,22,209,52,69,,216,40,54,*53
$BDGSV,8,8,28,219,32,256,*68
$GPRMC,044532.00,A,5036.4922,N,03636.4993,E,8.283,190.902,111221,,E,A*17
$GPGGA,044533.00,5036.4897,N,03636.4990,E,1,15,0.729,146.515,M,,M,0,*4B
$GNGSA,A,3,1,3,4,17,19,21,31,32,206,68,69,77,78,84,85,,,,,,1.250,0.729,1.015*20
$GPGSA,A,3,1,3,4,17,19,21,31,32,,,,,,,,,,,,,1.250,0.729,1.015*05
$GLGSA,A,3,68,69,77,78,84,85,,,,,,,,,,,,,,,1.250,0.729,1.015*2E
$BDGSA,A,3,206,,,,,,,,,,,,,,,,,,,,1.250,0.729,1.015*18
$QZGSA,A,3,,,,,,,,,,,,,,,,,,,,,1.250,0.729,1.015*21
$GPGSV,8,1,28,1,72,268,26,3,41,279,35,4,10,219,10,8,6,201,*49
$GPGSV,8,2,28,17,23,312,24,19,9,331,21,21,66,189,23,22,67,286,24*42
$GPGSV,8,3,28,28,5,,,31,31,119,22,32,40,57,26*7D
$GLGSV,8,4,28,68,32,52,28,69,77,336,27,70,25,251,15,77,14,17,12*6F
$GLGSV,8,5,28,78,18,72,19,83,8,169,,84,61,209,14,85,40,319,34*64
$BDGSV,8,6,28,201,5,,,202,10,114,,203,31,187,,204,5,,*61
$BDGSV,8,7,28,205,32,161,,206,48,63,20,209,52,69,,216,40,54,*51
$BDGSV,8,8,28,219,32,256,*68
$GPRMC,044533.00,A,5036.4897,N,03636.4990,E,8.002,176.454,111221,,E,A*17
$GPGGA,044534.00,5036.4875,N,03636.4992,E,1,15,0.729,146.165,M,,M,0,*41
$GNGSA,A,3,1,3,4,17,19,21,31,32,206,68,69,77,78,84,85,,,,,,1.250,0.729,1.015*20
$GPGSA,A,3,1,3,4,17,19,21,31,32,,,,,,,,,,,,,1.250,0.729,1.015*05
$GLGSA,A,3,68,69,77,78,84,85,,,,,,,,,,,,,,,1.250,0.729,1.015*2E
$BDGSA,A,3,206,,,,,,,,,,,,,,,,,,,,1.250,0.729,1.015*18
$QZGSA,A,3,,,,,,,,,,,,,,,,,,,,,1.250,0.729,1.015*21
$GPGSV,8,1,28,1,72,268,27,3,41,279,36,4,10,219,10,8,6,201,*4B
$GPGSV,8,2,28,17,23,312,29,19,9,331,19,21,66,189,20,22,67,286,27*44
$GPGSV,8,3,28,28,5,,,31,31,119,21,32,40,57,24*7C
$GLGSV,8,4,28,68,32,52,30,69,77,336,23,70,25,251,15,77,14,17,12*62
$GLGSV,8,5,28,78,18,72,17,83,8,169,,84,61,209,13,85,40,319,36*6F
$BDGSV,8,6,28,201,5,,,202,10,114,,203,31,187,,204,5,,*61
$BDGSV,8,7,28,205,32,161,,206,48,63,19,209,52,69,,216,40,54,*5B
$BDGSV,8,8,28,219,32,256,*68
$GPRMC,044534.00,A,5036.4875,N,03636.4992,E,7.197,161.321,111221,,E,A*1F
$GPGGA,044535.00,5036.4857,N,03636.5001,E,1,15,0.729,146.113,M,,M,0,*43
$GNGSA,A,3,1,3,4,17,19,21,31,32,206,68,69,77,78,84,85,,,,,,1.250,0.729,1.015*20
$GPGSA,A,3,1,3,4,17,19,21,31,32,,,,,,,,,,,,,1.250,0.729,1.015*05
$GLGSA,A,3,68,69,77,78,84,85,,,,,,,,,,,,,,,1.250,0.729,1.015*2E
$BDGSA,A,3,206,,,,,,,,,,,,,,,,,,,,1.250,0.729,1.015*18
$QZGSA,A,3,,,,,,,,,,,,,,,,,,,,,1.250,0.729,1.015*21
$GPGSV,8,1,28,1,72,268,25,3,41,279,36,4,10,219,9,8,6,201,*71
$GPGSV,8,2,28,17,23,312,27,19,9,331,21,21,66,189,25,22,67,286,27*44
$GPGSV,8,3,28,28,5,,,31,31,119,25,32,40,57,25*79
$GLGSV,8,4,28,68,32,52,27,69,77,336,20,70,25,251,14,77,14,17,12*66
$GLGSV,8,5,28,78,18,72,20,83,8,169,,84,61,209,14,85,40,319,33*69
$BDGSV,8,6,28,201,5,,,202,10,114,,203,31,187,,204,5,,*61
$BDGSV,8,7,28,205,32,161,,206,48,63,18,209,52,69,,216,40,54,*5A
$BDGSV,8,8,28,219,32,256,*68
$GPRMC,044535.00,A,5036.4857,N,03636.5001,E,6.051,147.525,111221,,E,A*10
$GPGGA,044536.00,5036.4842,N,03636.5016,E,1,15,0.729,146.080,M,,M,0,*49
$GNGSA,A,3,1,3,4,17,19,21,31,32,206,68,69,77,78,84,85,,,,,,1.250,0.729,1.015*20
$GPGSA,A,3,1,3,4,17,19,21,31,32,,,,,,,,,,,,,1.250,0.729,1.015*05
$GLGSA,A,3,68,69,77,78,84,85,,,,,,,,,,,,,,,1.250,0.729,1.015*2E
$BDGSA,A,3,206,,,,,,,,,,,,,,,,,,,,1.250,0.729,1.015*18
$QZGSA,A,3,,,,,,,,,,,,,,,,,,,,,1.250,0.729,1.015*21
$GPGSV,8,1,28,1,72,268,26,3,41,279,38,4,10,219,10,8,6,201,*44
$GPGSV,8,2,28,17,23,312,27,19,9,331,25,21,66,189,28,22,67,286,22*48
$GPGSV,8,3,28,28,5,,,31,31,119,28,32,40,57,30*70
$GLGSV,8,4,28,68,32,52,28,69,77,336,23,70,25,251,15,77,14,17,13*6A
$GLGSV,8,5,28,78,18,72,19,83,8,169,,84,61,209,14,85,40,319,31*61
$BDGSV,8,6,28,201,5,,,202,10,114,,203,31,187,,204,5,,*61
$BDGSV,8,7,28,205,32,161,,206,48,63,18,209,52,69,,216,40,54,*5A
$BDGSV,8,8,28,219,32,256,*68
$GPRMC,044536.00,A,5036.4842,N,03636.5016,E,6.184,137.314,111221,,E,A*1B
$GPGGA,044537.00,5036.4826,N,03636.5030,E,1,15,0.729,146.316,M,,M,0,*42
$GNGSA,A,3,1,3,4,17,19,21,31,32,206,68,69,77,78,84,85,,,,,,1.250,0.729,1.015*20
$GPGSA,A,3,1,3,4,17,19,21,31,32,,,,,,,,,,,,,1.250,0.729,1.015*05
$GLGSA,A,3,68,69,77,78,84,85,,,,,,,,,,,,,,,1.250,0.729,1.015*2E
$BDGSA,A,3,206,,,,,,,,,,,,,,,,,,,,1.250,0.729,1.015*18
$QZGSA,A,3,,,,,,,,,,,,,,,,,,,,,1.250,0.729,1.015*21
$GPGSV,8,1,28,1,72,268,26,3,41,279,35,4,10,219,8,8,6,201,*70
$GPGSV,8,2,28,17,23,312,29,19,9,331,23,21,66,189,29,22,67,286,25*46
$GPGSV,8,3,28,28,5,,,31,31,119,28,32,40,57,28*79
$GLGSV,8,4,28,68,32,52,31,69,77,336,21,70,25,251,14,77,14,17,14*66
$GLGSV,8,5,28,78,18,72,30,83,8,169,,84,61,208,15,85,40,319,33*68
$BDGSV,8,6,28,201,5,,,202,10,114,,203,31,187,,204,5,,*61
$BDGSV,8,7,28,205,32,161,,206,48,63,18,209,52,69,,216,40,54,*5A
$BDGSV,8,8,28,219,32,256,*68
$GPRMC,044537.00,A,5036.4826,N,03636.5030,E,6.546,145.080,111221,,E,A*1D
$GPGGA,044538.00,5036.4809,N,03636.5042,E,1,16,0.650,146.556,M,,M,0,*4B
$GNGSA,A,3,1,3,4,17,19,21,31,32,206,68,69,77,78,83,84,85,,,,,1.106,0.650,0.894*24
$GPGSA,A,3,1,3,4,17,19,21,31,32,,,,,,,,,,,,,1.106,0.650,0.894*0A
$GLGSA,A,3,68,69,77,78,83,84,85,,,,,,,,,,,,,,1.106,0.650,0.894*2A
$BDGSA,A,3,206,,,,,,,,,,,,,,,,,,,,1.106,0.650,0.894*17
$QZGSA,A,3,,,,,,,,,,,,,,,,,,,,,1.106,0.650,0.894*2E
$GPGSV,8,1,28,1,72,268,29,3,41,279,34,4,10,219,8,8,6,201,*7E
$GPGSV,8,2,28,17,23,312,25,19,9,331,19,21,66,189,27,22,67,286,24*4C
$GPGSV,8,3,28,28,5,,,31,31,119,27,32,40,57,25*7B
$GLGSV,8,4,28,68,32,52,30,69,77,336,22,70,25,251,14,77,14,17,15*65
$GLGSV,8,5,28,78,18,72,28,83,8,169,17,84,61,208,16,85,40,319,30*67
$BDGSV,8,6,28,201,5,,,202,10,114,,203,31,187,,204,5,,*61
$BDGSV,8,7,28,205,32,161,,206,48,63,18,209,52,69,,216,40,54,*5A
$BDGSV,8,8,28,219,32,256,*68
$GPRMC,044538.00,A,5036.4809,N,03636.5042,E,6.596,157.482,111221,,E,A*12
$GPGGA,044539.00,5036.4792,N,03636.5048,E,1,16,0.650,146.557,M,,M,0,*4C
$GNGSA,A,3,1,3,4,17,19,21,31,32,206,68,69,77,78,83,84,85,,,,,1.106,0.650,0.894*24
$GPGSA,A,3,1,3,4,17,19,21,31,32,,,,,,,,,,,,,1.106,0.650,0.894*0A
$GLGSA,A,3,68,69,77,78,83,84,85,,,,,,,,,,,,,,1.106,0.650,0.894*2A
$BDGSA,A,3,206,,,,,,,,,,,,,,,,,,,,1.106,0.650,0.894*17
$QZGSA,A,3,,,,,,,,,,,,,,,,,,,,,1.106,0.650,0.894*2E
$GPGSV,8,1,28,1,72,268,29,3,41,279,35,4,10,219,8,8,6,201,*7F
$GPGSV,8,2,28,17,23,312,24,19,9,331,22,21,66,189,22,22,67,286,27*43
$GPGSV,8,3,28,28,5,,,31,31,119,27,32,40,57,29*77
$GLGSV,8,4,28,68,32,52,29,69,77,336,23,70,25,251,13,77,14,17,15*6B
$GLGSV,8,5,28,78,18,72,29,83,8,169,14,84,61,208,16,85,40,319,35*60
$BDGSV,8,6,28,201,5,,,202,10,114,,203,31,187,,204,5,,*61
$BDGSV,8,7,28,205,32,161,,206,48,63,17,209,52,69,,216,40,54,*55
$BDGSV,8,8,28,219,32,256,*68
$GPRMC,044539.00,A,5036.4792,N,03636.5048,E,6.354,173.503,111221,,E,A*12
$GPGGA,044540.00,5036.4775,N,03636.5047,E,1,15,0.729,146.673,M,,M,0,*4D
$GNGSA,A,3,1,3,4,17,19,21,31,32,206,68,69,77,78,84,85,,,,,,1.251,0.729,1.016*22
$GPGSA,A,3,1,3,4,17,19,21,31,32,,,,,,,,,,,,,1.251,0.729,1.016*07
$GLGSA,A,3,68,69,77,78,84,85,,,,,,,,,,,,,,,1.251,0.729,1.016*2C
$BDGSA,A,3,206,,,,,,,,,,,,,,,,,,,,1.251,0.729,1.016*1A
$QZGSA,A,3,,,,,,,,,,,,,,,,,,,,,1.251,0.729,1.016*23
$GPGSV,8,1,28,1,72,268,27,3,41,279,32,4,10,219,8,8,6,201,*76
$GPGSV,8,2,28,17,23,312,27,19,9,331,21,21,66,189,21,22,67,286,26*41
$GPGSV,8,3,28,28,5,,,31,31,119,19,32,40,57,29*7A
$GLGSV,8,4,28,68,32,52,27,69,77,336,23,70,25,251,12,77,14,17,15*64
$GLGSV,8,5,28,78,18,72,30,83,8,169,13,84,60,208,15,85,40,319,38*60
$BDGSV,8,6,28,201,5,,,202,10,114,,203,31,187,,204,5,,*61
$BDGSV,8,7,28,205,32,161,,206,48,63,17,209,52,69,,216,40,54,*55
$BDGSV,8,8,28,219,32,256,*68
$GPRMC,044540.00,A,5036.4775,N,03636.5047,E,6.665,182.347,111221,,E,A*15
$GPGGA,044541.00,5036.4759,N,03636.5043,E,1,15,0.729,146.935,M,,M,0,*4B
$GNGSA,A,3,1,3,4,17,19,21,31,32,206,68,69,77,78,84,85,,,,,,1.251,0.729,1.016*22
$GPGSA,A,3,1,3,4,17,19,21,31,32,,,,,,,,,,,,,1.251,0.729,1.016*07
$GLGSA,A,3,68,69,77,78,84,85,,,,,,,,,,,,,,,1.251,0.729,1.016*2C
$BDGSA,A,3,206,,,,,,,,,,,,,,,,,,,,1.251,0.729,1.016*1A
$QZGSA,A,3,,,,,,,,,,,,,,,,,,,,,1.251,0.729,1.016*23
$GPGSV,8,1,28,1,72,268,24,3,41,279,31,4,10,219,8,8,6,201,*76
$GPGSV,8,2,28,17,23,312,28,19,9,331,18,21,66,189,19,22,67,286,22*4B
$GPGSV,8,3,28,28,5,,,31,31,119,25,32,39,57,29*7B
$GLGSV,8,4,28,68,32,52,26,69,77,336,18,70,25,251,11,77,14,17,15*6E
$GLGSV,8,5,28,78,18,72,23,83,8,169,11,84,60,208,16,85,40,319,35*6E
$BDGSV,8,6,28,201,5,,,202,10,114,,203,31,187,,204,5,,*61
$BDGSV,8,7,28,205,32,161,,206,48,63,17,209,52,69,,216,40,54,*55
$BDGSV,8,8,28,219,32,256,*68
$GPRMC,044541.00,A,5036.4759,N,03636.5043,E,5.604,193.011,111221,,E,A*1A
$GPGGA,044542.00,5036.4749,N,03636.5035,E,1,14,0.757,147.134,M,,M,0,*48
$GNGSA,A,3,1,3,4,17,19,21,31,32,206,68,69,78,84,85,,,,,,,1.292,0.757,1.048*2F
$GPGSA,A,3,1,3,4,17,19,21,31,32,,,,,,,,,,,,,1.292,0.757,1.048*0A
$GLGSA,A,3,68,69,78,84,85,,,,,,,,,,,,,,,,1.292,0.757,1.048*21
$BDGSA,A,3,206,,,,,,,,,,,,,,,,,,,,1.292,0.757,1.048*17
$QZGSA,A,3,,,,,,,,,,,,,,,,,,,,,1.292,0.757,1.048*2E
$GPGSV,8,1,28,1,72,268,28,3,41,279,28,4,10,219,9,8,6,201,*73
$GPGSV,8,2,28,17,23,312,23,19,9,331,19,21,66,189,17,22,67,286,25*48
$GPGSV,8,3,28,28,5,,,31,31,119,20,32,39,57,27*70
$GLGSV,8,4,28,68,32,52,26,69,77,336,18,70,25,251,9,77,14,17,14*56
$GLGSV,8,5,28,78,18,72,23,83,8,169,11,84,60,208,15,85,40,319,41*6E
$BDGSV,8,6,28,201,5,,,202,10,114,,203,31,187,,204,5,,*61
$BDGSV,8,7,28,205,32,161,,206,48,63,22,209,52,69,,216,40,54,*53
$BDGSV,8,8,28,219,32,256,*68
$GPRMC,044542.00,A,5036.4749,N,03636.5035,E,5.248,200.452,111221,,E,A*1F
$GPGGA,044543.00,5036.4734,N,03636.5026,E,1,14,0.757,146.895,M,,M,0,*42
$GNGSA,A,3,1,3,4,17,19,21,31,32,206,68,69,78,84,85,,,,,,,1.293,0.757,1.048*2E
$GPGSA,A,3,1,3,4,17,19,21,31,32,,,,,,,,,,,,,1.293,0.757,1.048*0B
$GLGSA,A,3,68,69,78,84,85,,,,,,,,,,,,,,,,1.293,0.757,1.048*20
$BDGSA,A,3,206,,,,,,,,,,,,,,,,,,,,1.293,0.757,1.048*16
$QZGSA,A,3,,,,,,,,,,,,,,,,,,,,,1.293,0.757,1.048*2F
$GPGSV,8,1,28,1,72,268,27,3,41,279,18,4,10,219,10,8,6,201,*47
$GPGSV,8,2,28,17,23,312,21,19,9,331,19,21,66,189,23,22,67,286,27*4F
$GPGSV,8,3,28,28,5,,,31,31,119,26,32,39,57,24*75
$GLGSV,8,4,28,68,32,52,23,69,77,336,21,70,25,251,8,77,14,17,13*5F
$GLGSV,8,5,28,78,18,72,19,83,8,169,11,84,60,208,14,85,40,319,40*67
$BDGSV,8,6,28,201,5,,,202,10,114,,203,31,187,,204,5,,*61
$BDGSV,8,7,28,205,32,161,,206,48,63,24,209,52,69,,216,40,54,*55
$BDGSV,8,8,28,219,32,256,*68
$GPRMC,044543.00,A,5036.4734,N,03636.5026,E,6.169,200.210,111221,,E,A*15
$GPGGA,044544.00,5036.4716,N,03636.5015,E,1,14,0.757,146.108,M,,M,0,*48
$GNGSA,A,3,1,3,4,17,19,21,31,32,206,68,69,78,84,85,,,,,,,1.293,0.757,1.048*2E
$GPGSA,A,3,1,3,4,17,19,21,31,32,,,,,,,,,,,,,1.293,0.757,1.048*0B
$GLGSA,A,3,68,69,78,84,85,,,,,,,,,,,,,,,,1.293,0.757,1.048*20
$BDGSA,A,3,206,,,,,,,,,,,,,,,,,,,,1.293,0.757,1.048*16
$QZGSA,A,3,,,,,,,,,,,,,,,,,,,,,1.293,0.757,1.048*2F
$GPGSV,8,1,28,1,72,268,26,3,41,279,22,4,10,219,9,8,6,201,*77
$GPGSV,8,2,28,17,23,312,19,19,9,331,17,21,66,189,26,22,67,286,26*4E
$GPGSV,8,3,28,28,5,,,31,31,119,31,32,39,57,22*75
$GLGSV,8,4,28,68,32,52,21,69,77,336,22,70,25,251,8,77,14,17,13*5E
$GLGSV,8,5,28,78,18,72,20,83,8,169,10,84,60,208,13,85,40,319,35*69
$BDGSV,8,6,28,201,5,,,202,10,114,,203,31,187,,204,5,,*61
$BDGSV,8,7,28,205,32,161,,206,48,63,25,209,52,69,,216,40,54,*54
$BDGSV,8,8,28,219,32,256,*68
$GPRMC,044544.00,A,5036.4716,N,03636.5015,E,6.741,204.313,111221,,E,A*18
$GPGGA,044545.00,5036.4699,N,03636.5006,E,1,14,0.757,145.507,M,,M,0,*45
$GNGSA,A,3,1,3,4,17,19,21,31,32,206,68,69,78,84,85,,,,,,,1.293,0.757,1.048*2E
$GPGSA,A,3,1,3,4,17,19,21,31,32,,,,,,,,,,,,,1.293,0.757,1.048*0B
$GLGSA,A,3,68,69,78,84,85,,,,,,,,,,,,,,,,1.293,0.757,1.048*20
$BDGSA,A,3,206,,,,,,,,,,,,,,,,,,,,1.293,0.757,1.048*16
$QZGSA,A,3,,,,,,,,,,,,,,,,,,,,,1.293,0.757,1.048*2F
$GPGSV,8,1,28,1,72,268,23,3,41,279,29,4,10,219,8,8,6,201,*78
$GPGSV,8,2,28,17,23,312,20,19,9,331,15,21,66,189,23,22,67,286,27*42
$GPGSV,8,3,28,28,5,,,31,31,119,33,32,39,57,27*72
$GLGSV,8,4,28,68,32,52,21,69,77,336,19,70,25,251,10,77,14,17,12*6E
$GLGSV,8,5,28,78,18,72,25,83,8,169,8,84,60,208,13,85,40,319,28*59
$BDGSV,8,6,28,201,5,,,202,10,114,,203,31,187,,204,5,,*61
$BDGSV,8,7,28,205,32,161,,206,48,63,22,209,52,69,,216,40,54,*53
$BDGSV,8,8,28,219,32,256,*68
$GPRMC,044545.00,A,5036.4699,N,03636.5006,E,6.156,207.754,111221,,E,A*19
$GPGGA,044546.00,5036.4685,N,03636.4996,E,1,14,0.757,145.061,M,,M,0,*4F
$GNGSA,A,3,1,3,4,17,19,21,31,32,206,68,69,78,84,85,,,,,,,1.293,0.757,1.048*2E
$GPGSA,A,3,1,3,4,17,19,21,31,32,,,,,,,,,,,,,1.293,0.757,1.048*0B
$GLGSA,A,3,68,69,78,84,85,,,,,,,,,,,,,,,,1.293,0.757,1.048*20
$BDGSA,A,3,206,,,,,,,,,,,,,,,,,,,,1.293,0.757,1.048*16
$QZGSA,A,3,,,,,,,,,,,,,,,,,,,,,1.293,0.757,1.048*2F
$GPGSV,8,1,28,1,72,268,21,3,41,279,29,4,10,219,8,8,6,201,*7A
$GPGSV,8,2,28,17,24,312,20,19,9,331,14,21,66,189,17,22,67,286,22*46
$GPGSV,8,3,28,28,5,,,31,31,119,32,32,39,57,25*71
$GLGSV,8,4,28,68,32,52,22,69,77,336,20,70,25,251,12,77,14,17,13*64
$GLGSV,8,5,28,78,18,72,23,83,8,169,10,84,60,208,10,85,40,319,34*68
$BDGSV,8,6,28,201,5,,,202,10,114,,203,31,187,,204,5,,*61
$BDGSV,8,7,28,205,32,161,,206,48,63,23,209,52,69,,216,40,54,*52
$BDGSV,8,8,28,219,32,256,*68
$GPRMC,044546.00,A,5036.4685,N,03636.4996,E,5.796,204.694,111221,,E,A*11
$GPGGA,044547.00,5036.4670,N,03636.4986,E,1,14,0.757,144.760,M,,M,0,*42
$GNGSA,A,3,1,3,4,17,19,21,31,32,206,68,69,78,84,85,,,,,,,1.293,0.757,1.049*2F
$GPGSA,A,3,1,3,4,17,19,21,31,32,,,,,,,,,,,,,1.293,0.757,1.049*0A
$GLGSA,A,3,68,69,78,84,85,,,,,,,,,,,,,,,,1.293,0.757,1.049*21
$BDGSA,A,3,206,,,,,,,,,,,,,,,,,,,,1.293,0.757,1.049*17
$QZGSA,A,3,,,,,,,,,,,,,,,,,,,,,1.293,0.757,1.049*2E
$GPGSV,8,1,28,1,72,268,20,3,41,279,25,4,10,219,8,8,6,201,*77
$GPGSV,8,2,28,17,24,312,27,19,9,331,13,21,66,189,20,22,67,286,22*42
$GPGSV,8,3,28,28,5,,,31,31,119,31,32,39,57,28*7F
$GLGSV,8,4,28,68,32,52,20,69,77,336,25,70,25,251,12,77,14,17,13*63
$GLGSV,8,5,28,78,18,72,22,83,8,169,10,84,60,208,8,85,40,319,36*52
$BDGSV,8,6,28,201,5,,,202,10,114,,203,31,187,,204,5,,*61
$BDGSV,8,7,28,205,32,161,,206,48,63,20,209,52,69,,216,40,54,*51
$BDGSV,8,8,28,219,32,256,*68
$GPRMC,044547.00,A,5036.4670,N,03636.4986,E,6.201,198.766,111221,,E,A*19
$GPGGA,044548.00,5036.4654,N,03636.4977,E,1,14,0.757,144.303,M,,M,0,*44
$GNGSA,A,3,1,3,4,17,19,21,31,32,206,68,69,78,84,85,,,,,,,1.293,0.757,1.049*2F
